City,Lat,Lng,Max Temp,Humidity,Cloudiness,Wind Speed,Country,Date
paamiut,61.994,-49.6678,-1.46,85,20,2.71,GL,1612724530
punta arenas,8.9897,125.34,23.8,92,100,0.6,PH,1612724530
nanortalik,60.1432,-45.2371,-0.45,89,74,6.29,GL,1612724224
mahebourg,-20.4081,57.7,27.0,78,75,4.63,MU,1612724531
busselton,-33.65,115.3333,17.22,99,98,0.45,AU,1612724532
tuktoyaktuk,69.4541,-133.0374,-32.0,75,75,8.75,CA,1612724342
bukama,-9.2,25.85,22.14,92,100,0.54,CD,1612724533
cedar city,41.2122,-92.5257,-18.0,55,90,3.09,US,1612724533
ushuaia,-54.8,-68.3,15.0,47,40,5.66,AR,1612724329
airai,-8.9266,125.4092,15.81,100,100,1.26,TL,1612723779
jamestown,42.097,-79.2353,-7.78,73,90,7.72,US,1612723977
fuxin,42.0156,121.6589,-12.16,81,0,2.2,CN,1612724535
bluff,-46.6,168.3333,12.65,83,92,2.41,NZ,1612723856
hermanus,-34.4187,19.2345,20.0,75,2,0.45,ZA,1612723974
butaritari,3.0707,172.7902,27.19,80,88,8.8,KI,1612723986
celestun,20.8667,-90.4,26.55,68,0,4.33,MX,1612724536
qaanaaq,77.484,-69.3632,-11.0,86,74,2.51,GL,1612724045
barrow,71.2906,-156.7887,-31.0,76,20,5.14,US,1612724538
acari,-15.4311,-74.6158,29.09,48,50,5.46,PE,1612724538
nome,64.5011,-165.4064,-21.0,84,1,2.6,US,1612724251
hithadhoo,-0.6,73.0833,27.79,70,83,3.66,MV,1612723955
puerto ayora,36.5939,-6.233,14.0,72,75,5.14,ES,1612724539
atuona,-9.8,-139.0333,26.34,75,23,9.67,PF,1612724164
mataura,-46.1927,168.8643,11.92,80,98,0.87,NZ,1612724331
sainte-anne-des-monts,49.124,-66.4924,-5.0,58,13,6.17,CA,1612724540
itoman,26.1247,127.6694,17.0,72,20,3.09,JP,1612724449
douala,4.0483,9.7043,29.0,84,40,1.54,CM,1612724541
gaogou,34.0175,119.1886,2.15,78,100,4.6,CN,1612724541
inyonga,-6.7167,32.0667,19.83,91,100,1.96,TZ,1612724033
bambous virieux,-20.2567,57.4061,27.0,78,75,4.63,MU,1612724542
gwadar,25.1216,62.3254,19.78,51,0,2.2,PK,1612724422
castro,-24.7911,-50.0119,24.58,47,0,1.55,BR,1612724154
kaitangata,-46.2817,169.8464,16.11,93,100,2.68,NZ,1612723679
narsaq,60.9167,-46.05,3.0,30,42,21.09,GL,1612724040
biltine,14.5333,20.9167,23.12,17,0,5.17,TD,1612724544
mys shmidta,62.0589,48.6201,-28.6,84,100,4.23,RU,1612724546
bredasdorp,-34.5322,20.0403,20.0,60,3,4.63,ZA,1612723869
arraial do cabo,-22.8362,-46.646,28.89,44,40,4.12,BR,1612724547
egvekinot,66.3167,-179.1667,-23.24,81,0,6.66,RU,1612724547
provideniya,64.3833,-173.3,-19.96,79,100,7.45,RU,1612723960
gonen,40.1049,27.654,16.0,67,0,6.69,TR,1612724550
albany,42.6001,-73.9662,-1.67,73,100,1.89,US,1612724550
rikitea,-23.1203,-134.9692,25.18,72,91,5.5,PF,1612724551
chuy,-33.6971,-53.4616,24.03,62,1,4.44,UY,1612723868
pisco,-13.7,-76.2167,24.0,83,40,4.12,PE,1612724553
saskylakh,71.9167,114.0833,-38.86,78,25,5.51,RU,1612723998
leningradskiy,69.3833,178.4167,-25.5,80,0,2.79,RU,1612723820
port alfred,-7.0349,29.7638,23.75,74,100,1.78,CD,1612724556
khatanga,71.9667,102.5,-35.03,79,0,4.55,RU,1612724085
avarua,-21.2078,-159.775,28.0,78,40,5.14,CK,1612723803
cap malheureux,49.2718,-1.2104,3.89,69,90,5.66,FR,1612724557
kalmunai,7.4167,81.8167,25.05,87,16,4.89,LK,1612724558
caravelas,-17.7125,-39.2481,26.65,85,100,4.53,BR,1612724559
north platte,50.3333,3.6667,0.0,100,90,3.98,FR,1612724559
bairiki,1.3292,172.9752,27.0,89,75,4.12,KI,1612724560
santiago de cao,-33.4569,-70.6483,25.56,60,0,2.57,CL,1612724404
batagay-alyta,67.8006,130.4114,-36.23,79,0,1.15,RU,1612724561
kununurra,-15.7667,128.7333,26.0,79,75,3.11,AU,1612724562
lompoc,34.6391,-120.4579,17.22,71,1,1.54,US,1612724336
hobart,-42.8794,147.3294,12.0,58,40,5.14,AU,1612723857
sechura,-5.5569,-80.8222,29.38,50,0,5.81,PE,1612724548
manaure,11.7751,-72.4445,30.55,51,100,8.89,CO,1612724564
victoria,22.2855,114.1577,20.0,84,0,4.95,HK,1612724564
klaksvik,62.2266,-6.589,3.0,60,75,5.14,FO,1612724184
saldanha,-33.0117,17.9442,19.0,63,0,9.26,ZA,1612724556
willowmore,-33.2926,23.4895,17.79,68,3,4.66,ZA,1612724566
mayo,38.8876,-76.5119,2.78,100,90,3.09,US,1612724521
lavrentiya,65.5833,-171.0,-23.93,84,0,3.16,RU,1612724567
tiksi,71.6872,128.8694,-33.34,84,24,1.75,RU,1612723992
matamoros,25.5333,-103.25,21.0,11,75,0.82,MX,1612724567
padang,-0.9492,100.3543,26.0,83,20,2.57,ID,1612724041
karratha,-20.7377,116.8463,25.82,71,0,4.36,AU,1612723855
lizzano,40.391,17.4476,15.0,88,75,6.69,IT,1612724569
guerrero negro,17.6667,-100.0,30.45,28,0,0.69,MX,1612724569
sur,22.5667,59.5289,18.49,73,0,2.02,OM,1612724484
gorontalo,0.5412,123.0595,23.19,87,92,1.6,ID,1612724571
northam,51.0333,-4.2167,2.22,69,14,5.36,GB,1612724572
gravdal,68.1214,13.5031,1.0,69,40,7.2,NO,1612723866
necochea,-38.5473,-58.7368,15.0,91,100,7.82,AR,1612724346
kapaa,22.0752,-159.319,19.0,63,1,4.12,US,1612724573
cape town,-36.413,-71.9028,21.0,68,75,2.06,CL,1612724573
kidal,18.4411,1.4078,23.85,19,99,3.06,ML,1612724574
nisia floresta,39.3942,21.6373,10.0,100,40,2.06,GR,1612724574
ossora,59.2353,163.0719,-5.82,96,100,16.78,RU,1612724575
yellowknife,62.456,-114.3525,-42.0,66,1,2.57,CA,1612724368
gaesti,44.7167,25.3167,6.67,79,100,4.76,RO,1612724576
abu kamal,24.6,72.7,9.87,45,0,1.86,IN,1612724576
najran,17.4924,44.1277,20.0,34,91,1.89,SA,1612724577
severo-kurilsk,50.6789,156.125,-7.19,89,95,6.44,RU,1612724014
arlit,18.7369,7.3853,24.39,14,100,3.92,NE,1612724578
lasa,46.6166,10.7002,4.44,100,90,2.06,IT,1612724573
lardos,36.0942,28.0157,16.0,77,20,1.54,GR,1612724025
igarka,67.4667,86.5833,-22.74,86,100,5.57,RU,1612723987
coquimbo,-29.9533,-71.3436,21.0,56,0,5.14,CL,1612724367
kapit,2.0167,112.9333,23.14,95,100,0.39,MY,1612724249
robat karim,34.2687,46.804,7.0,76,0,2.06,IR,1612724580
vanimo,-2.6741,141.3028,25.06,86,100,1.39,PG,1612724330
ialibu,-6.2821,143.9935,13.87,96,100,0.99,PG,1612724581
nikolskoye,59.7035,30.7861,-8.0,86,90,5.0,RU,1612724581
kavieng,-2.5744,150.7967,28.13,76,44,3.78,PG,1612724071
balkanabat,39.5108,54.3671,9.87,71,100,4.54,TM,1612724582
bethel,41.3712,-73.414,-2.22,93,90,3.6,US,1612723985
tasiilaq,65.6145,-37.6368,-7.0,58,0,1.03,GL,1612724146
stokmarknes,68.5646,14.9108,0.0,64,75,4.12,NO,1612724585
urumqi,43.801,87.6005,-9.0,86,100,2.0,CN,1612724351
hilo,19.7297,-155.09,23.89,49,20,2.06,US,1612724587
prince rupert,52.9669,-108.3847,-34.0,75,1,1.03,CA,1612724587
vestmannaeyjar,63.4427,-20.2734,2.0,87,40,11.83,IS,1612724298
katsuura,35.1333,140.3,8.0,46,75,1.54,JP,1612724016
kahului,20.8947,-156.47,21.11,77,20,2.57,US,1612724007
cairns,-16.9167,145.7667,26.67,94,40,0.51,AU,1612724431
olinda,-8.0089,-34.8553,28.0,65,40,4.12,BR,1612724348
bachaquero,9.9694,-71.1494,30.97,55,100,3.42,VE,1612724591
tuatapere,-46.1333,167.6833,14.47,72,100,2.74,NZ,1612724367
pacific grove,38.482,-90.7415,-4.44,54,100,0.89,US,1612724592
petropavlovsk-kamchatskiy,53.0452,158.6483,-7.0,93,100,3.0,RU,1612724593
jacqueville,5.2052,-4.4146,28.0,89,20,3.6,CI,1612724418
ponta do sol,38.7333,-28.2667,16.0,72,40,7.2,PT,1612724594
faanui,-16.4833,-151.75,27.2,76,5,5.3,PF,1612724595
union,40.6334,-74.2663,0.56,93,90,2.57,US,1612724596
clyde river,41.3042,-82.9752,-8.89,68,100,5.18,US,1612724596
upernavik,72.7868,-56.1549,-7.52,79,7,1.49,GL,1612724123
tenkodogo,11.78,-0.3697,29.73,15,0,2.79,BF,1612724597
izmaylovo,53.7211,47.2458,-19.49,90,100,5.63,RU,1612724597
cherskiy,68.75,161.3,-19.96,70,25,0.81,RU,1612724346
galveston,29.3669,-94.9669,15.56,67,75,3.09,US,1612724308
dickinson,29.4608,-95.0513,16.11,55,1,3.09,US,1612724599
kismayo,-0.3582,42.5454,25.26,82,0,7.89,SO,1612724349
shingu,33.7333,135.9833,5.21,80,0,2.72,JP,1612724600
kodiak,57.79,-152.4072,-3.0,68,1,2.06,US,1612723889
pangai,-19.8,-174.35,25.0,94,90,4.12,TO,1612724601
dikson,73.5069,80.5464,-35.4,85,90,5.61,RU,1612724067
black diamond,31.0093,-85.7444,11.11,66,90,3.6,US,1612724603
zatoka,46.0725,30.4654,-2.0,80,90,6.0,UA,1612724603
new norfolk,6.6518,-10.5932,28.0,78,20,1.54,LR,1612724604
saint-philippe,-21.3585,55.7679,26.0,78,0,2.57,RE,1612724605
constitucion,-35.3333,-72.4167,19.29,67,3,3.84,CL,1612724009
vaini,-21.2,-175.2,26.0,89,75,5.66,TO,1612724605
flin flon,48.4982,6.6557,4.0,87,90,3.09,FR,1612724606
jian,27.1172,114.9793,14.83,65,100,4.65,CN,1612724606
aksarka,66.5606,67.7975,-27.16,88,100,13.23,RU,1612724607
bubaque,11.2833,-15.8333,25.3,65,0,7.96,GW,1612724608
luderitz,-26.6481,15.1594,22.03,59,0,13.73,NA,1612724129
rawson,-43.3002,-65.1023,16.21,48,24,5.8,AR,1612724313
karak,31.1667,35.75,10.0,87,0,1.54,JO,1612724610
eenhana,-17.4667,16.3333,26.74,35,58,4.08,NA,1612724610
traralgon,-38.1833,146.5333,12.78,89,67,1.79,AU,1612724611
dharchula,29.85,80.5333,10.96,31,0,3.2,IN,1612724611
marsh harbour,53.6512,-1.8078,1.67,83,100,3.58,GB,1612724612
matara,5.9485,80.5353,24.15,87,7,2.32,LK,1612724457
srednekolymsk,67.45,153.6833,-23.84,85,76,1.83,RU,1612724271
vestmanna,62.1564,-7.1664,3.0,60,75,5.14,FO,1612724347
teguldet,57.3064,88.1667,-7.26,94,46,5.58,RU,1612724613
sao gabriel da cachoeira,20.5113,76.2129,16.47,29,30,2.72,IN,1612724614
morinville,53.8001,-113.652,-31.0,76,1,1.03,CA,1612724614
port elizabeth,-7.0349,29.7638,23.75,74,100,1.78,CD,1612724556
manokwari,-0.8667,134.0833,25.83,80,100,1.43,ID,1612724435
east london,65.0,-15.0,2.0,69,75,3.6,IS,1612724616
hasaki,35.7333,140.8333,1.0,80,75,1.03,JP,1612724104
bengkulu,-3.8004,102.2655,24.28,85,100,2.92,ID,1612724029
dillon,34.4166,-79.3712,9.0,76,90,5.14,US,1612724419
nago,26.5881,127.9761,17.0,63,1,1.54,JP,1612724617
talnakh,69.4865,88.3972,-29.91,73,4,1.58,RU,1612724227
csanadapaca,46.55,20.8833,8.33,100,100,2.06,HU,1612724618
kimbe,-5.5502,150.1429,24.93,85,1,1.09,PG,1612724544
nikolsk,53.7189,46.0712,-19.09,91,100,6.28,RU,1612724619
lazaro cardenas,19.4558,-71.3261,31.67,50,12,3.58,DO,1612724620
san cristobal,13.3034,-4.8956,28.76,15,99,6.95,ML,1612724393
frolovo,49.7713,43.6622,-13.33,72,0,6.26,RU,1612724621
carnarvon,-24.8667,113.6333,25.0,100,40,5.66,AU,1612724621
ternate,0.8,127.4,27.15,79,92,1.81,ID,1612724621
raga,8.4596,25.678,18.92,26,100,1.84,SS,1612724622
bambanglipuro,-7.95,110.2833,24.51,90,100,2.15,ID,1612724335
tabas,33.5959,56.9244,14.0,23,99,1.03,IR,1612724344
cabo san lucas,-8.2833,-35.0333,28.0,65,40,4.12,BR,1612724400
mount pleasant,53.6597,-1.8537,0.56,83,100,3.58,GB,1612724365
rongcheng,30.634,117.8517,9.25,86,100,3.57,CN,1612724624
saint-joseph,-21.3667,55.6167,26.0,78,0,2.57,RE,1612724035
esperance,-33.8667,121.9,17.0,88,75,5.14,AU,1612724045
magnor,59.9511,12.1996,-10.56,85,0,3.09,SE,1612724625
labuhan,-6.8844,112.2051,26.07,84,100,4.86,ID,1612724311
lebu,-37.6167,-73.65,17.62,75,11,3.87,CL,1612724047
contamana,-7.3333,-75.0167,33.57,50,65,1.79,PE,1612724626
ukiah,39.1502,-123.2078,15.56,66,1,0.45,US,1612724348
marawi,7.9986,124.2928,23.89,95,100,0.89,PH,1612724310
torbay,47.6666,-52.7314,0.56,55,20,12.35,CA,1612724627
roebourne,-20.7833,117.1333,25.61,70,0,4.53,AU,1612724065
zhangye,38.9342,100.4517,-2.08,71,9,1.67,CN,1612724628
mglin,53.0591,32.8475,-18.77,92,6,3.2,RU,1612724629
rio branco,38.3,21.7833,18.0,45,0,4.12,GR,1612724629
ancud,-41.8697,-73.8203,27.0,34,0,3.09,CL,1612724297
poum,-20.2333,164.0167,26.21,72,100,1.33,NC,1612724427
abeche,13.8292,20.8324,22.51,18,4,4.58,TD,1612724630
khorinsk,52.1657,109.7726,-16.8,91,74,1.32,RU,1612724631
uyuni,-20.4597,-66.825,19.03,34,95,4.27,BO,1612724631
panino,51.6467,40.1346,-15.0,72,0,5.0,RU,1612724632
tripoli,32.8752,13.1875,20.43,45,94,6.47,LY,1612724632
praya,14.9215,-23.5087,21.0,64,75,9.26,CV,1612724632
elko,41.0002,-115.5012,8.0,23,1,5.14,US,1612724413
abu samrah,24.6,72.7,9.87,45,0,1.86,IN,1612724576
broome,42.2506,-75.833,0.56,93,90,4.63,US,1612724389
gushikawa,26.3544,127.8686,17.0,93,1,2.57,JP,1612724634
darnah,32.767,22.6367,19.26,40,100,8.85,LY,1612724634
vanavara,60.34,102.2797,-2.59,98,100,3.69,RU,1612724635
eyl,7.9803,49.8164,24.38,79,2,8.37,SO,1612724530
zhezkazgan,47.8043,67.7144,-3.92,98,100,7.8,KZ,1612724636
tobermory,45.2501,-81.6665,-10.0,92,100,5.66,CA,1612724599
georgetown,5.4112,100.3354,27.0,83,20,1.8,MY,1612724088
vila velha,42.0304,-8.1588,7.78,96,100,7.6,PT,1612724637
ribeira grande,42.7461,-8.4439,10.0,93,75,4.63,ES,1612724637
fortuna,40.5982,-124.1573,11.67,87,90,2.06,US,1612724638
harper,4.375,-7.7169,26.77,85,100,2.96,LR,1612724638
kochi,9.9399,76.2602,24.0,83,0,1.54,IN,1612724638
launceston,-41.45,147.1667,12.22,66,90,4.12,AU,1612724639
catuday,16.2923,119.8062,24.89,79,0,4.84,PH,1612724639
sorland,67.667,12.6934,1.0,86,40,9.77,NO,1612724582
valdosta,30.8327,-83.2785,11.0,76,90,1.54,US,1612724640
geraldton,-28.7667,114.6,21.0,78,40,4.63,AU,1612724640
kungsbacka,57.4872,12.0761,-6.11,85,0,4.12,SE,1612724641
mar del plata,43.4002,-4.0094,9.0,81,75,2.57,ES,1612724641
puerto madryn,36.5939,-6.233,14.0,72,75,5.14,ES,1612724539
asau,46.4333,26.4,-1.11,74,100,1.13,RO,1612724445
lucapa,-8.4192,20.7447,20.33,93,100,1.81,AO,1612724643
dasoguz,41.8363,59.9666,5.0,81,0,3.09,TM,1612724538
pangnirtung,66.1451,-65.7125,1.0,37,20,5.14,CA,1612724527
alofi,-19.0595,-169.9187,26.0,94,100,2.57,NU,1612724426
sao filipe,20.5113,76.2129,15.9,30,58,2.53,IN,1612724646
colombo,6.9319,79.8478,26.0,83,0,5.66,LK,1612724500
hami,42.8,93.45,-0.42,79,9,2.36,CN,1612724647
berlevag,70.8578,29.0864,-4.0,74,75,10.29,NO,1612724648
okitipupa,6.5047,4.7839,27.15,83,94,2.3,NG,1612724648
hirara,24.8,125.2833,20.28,71,91,4.83,JP,1612724648
yerbogachen,61.2767,108.0108,-8.43,97,100,2.36,RU,1612724543
san andres,13.3034,-4.8956,28.76,15,99,6.95,ML,1612724649
pudozh,61.8099,36.5345,-23.83,90,37,1.69,RU,1612724649
constantine,36.365,6.6147,8.0,76,40,4.12,DZ,1612724288
bundaberg,-24.85,152.35,27.78,89,75,2.06,AU,1612724094
mount gambier,53.6597,-1.8537,0.56,83,100,3.58,GB,1612724651
biak,-0.9131,122.8766,25.25,80,100,1.04,ID,1612724651
flinders,-34.5833,150.8552,18.89,82,58,0.89,AU,1612724651
panaba,21.2833,-88.2667,29.36,60,36,1.66,MX,1612724652
ahipara,-35.1667,173.1667,16.45,83,17,3.65,NZ,1612724652
balkhash,46.844,74.9804,-1.01,99,99,2.65,KZ,1612724653
ormara,25.2088,64.6357,20.38,49,0,4.05,PK,1612724653
adrar,20.5022,-10.0711,17.29,29,0,3.85,MR,1612724337
guiratinga,-16.3494,-53.7583,29.37,51,66,2.71,BR,1612724654
russell,32.3502,-85.1999,12.0,50,1,2.57,US,1612724655
mbandaka,0.0487,18.2603,26.16,61,3,1.15,CD,1612724655
honningsvag,70.9821,25.9704,-3.0,68,75,12.35,NO,1612724655
qinhuangdao,39.9317,119.5883,-5.57,81,0,0.85,CN,1612724656
bunia,1.5667,30.25,20.27,36,0,0.48,CD,1612724656
waingapu,-9.6567,120.2641,25.6,81,32,2.56,ID,1612724656
rio gallegos,38.3,21.7833,18.0,45,0,4.12,GR,1612724657
carupano,10.6678,-63.2585,27.61,64,29,6.83,VE,1612724657
vardo,70.3705,31.1107,-5.0,86,75,14.4,NO,1612724342
amapa,1.0,-52.0,26.28,94,100,1.11,BR,1612724658
itagiba,-14.2836,-39.8428,29.38,65,69,2.83,BR,1612724658
port hawkesbury,-7.0349,29.7638,23.75,74,100,1.78,CD,1612724659
polewali,-3.4324,119.3435,25.02,83,85,1.16,ID,1612724659
krasnik,50.9236,22.2271,-8.89,85,90,7.2,PL,1612724659
baykit,61.67,96.37,-3.75,96,98,2.46,RU,1612724660
mount isa,53.6597,-1.8537,0.56,83,100,3.58,GB,1612724651
mawlaik,23.6333,94.4167,14.4,50,26,0.63,MM,1612724660
paka,4.6374,103.4368,26.0,89,17,2.06,MY,1612724661
sitka,57.0531,-135.33,-1.0,47,1,2.57,US,1612723917
bereda,43.2686,-7.5406,8.33,98,100,6.26,ES,1612724662
port hardy,-7.0349,29.7638,23.75,74,100,1.78,CD,1612724556
lapao,-11.3833,-41.8319,29.92,42,71,1.81,BR,1612724662
yarim,14.298,44.3779,10.7,50,0,3.92,YE,1612724663
marystown,47.1666,-55.1483,-0.41,88,18,13.53,CA,1612724663
gubbi,13.3106,76.9444,17.74,53,77,3.56,IN,1612724663
tiarei,-17.5333,-149.3333,29.0,61,75,2.06,PF,1612724664
changji,44.0167,87.3167,-9.0,86,100,2.0,CN,1612724664
qaqortoq,60.7167,-46.0333,3.0,30,86,21.61,GL,1612724664
berdigestyakh,62.0989,126.6992,-34.11,84,0,2.21,RU,1612724665
puerto baquerizo moreno,36.5939,-6.233,14.0,72,75,5.14,ES,1612724665
sawtell,-30.3833,153.1,22.0,78,75,6.17,AU,1612724503
hofn,64.2539,-15.2082,2.04,94,100,8.46,IS,1612724666
homer,59.6425,-151.5483,-5.0,86,1,2.4,US,1612724667
beidao,34.5686,105.8933,3.37,62,0,1.76,CN,1612724530
kloulklubed,7.0419,134.2556,25.0,94,90,2.57,PW,1612724453
chokurdakh,70.6333,147.9167,-30.33,86,99,3.51,RU,1612724020
hambantota,6.1241,81.1185,25.0,94,0,3.6,LK,1612724668
san policarpo,13.3034,-4.8956,28.76,15,99,6.95,ML,1612724668
omaruru,-21.4333,15.9333,26.0,33,15,3.03,NA,1612724669
ulaangom,49.9811,92.0667,-20.55,89,100,0.55,MN,1612724669
dubuque,42.4833,-90.8668,-17.78,54,20,2.06,US,1612724477
avera,33.194,-82.5271,9.44,71,90,3.09,US,1612724670
mwadui,-3.55,33.6,21.31,66,67,2.03,TZ,1612724670
grindavik,63.8424,-22.4338,1.0,64,40,5.66,IS,1612724671
grand river south east,38.8755,-109.5012,14.0,13,1,7.72,US,1612724671
isangel,-19.55,169.2667,25.22,80,13,2.4,VU,1612724040
christchurch,-43.5333,172.6333,17.22,100,30,2.57,NZ,1612724553
kurunegala,7.4863,80.3623,26.0,83,0,5.66,LK,1612724672
cam ranh,-38.9838,-67.8222,21.0,46,90,4.63,AR,1612724673
anadyr,64.75,177.4833,-12.0,40,0,5.0,RU,1612724172
mamallapuram,12.6264,80.1722,23.0,83,20,1.54,IN,1612724113
codrington,-38.2667,141.9667,13.48,70,100,4.65,AU,1612724674
ratnagiri,16.9833,73.3,24.71,44,1,2.91,IN,1612724674
newport,51.5877,-2.9984,1.67,73,63,10.61,GB,1612724446
birobidzhan,48.8,132.95,-22.0,87,2,2.22,RU,1612724675
souillac,-20.5167,57.5167,27.0,74,75,3.09,MU,1612724080
gaillac,43.9016,1.8969,8.33,98,100,1.79,FR,1612724676
pleshanovo,52.8333,53.4833,-22.71,90,99,4.33,RU,1612724676
san quintin,13.3034,-4.8956,28.76,15,99,6.95,ML,1612724649
longyearbyen,78.2186,15.6401,-9.0,67,75,9.77,SJ,1612724108
thompson,55.7435,-97.8558,-35.0,68,90,8.23,CA,1612724186
shangzhi,45.2167,127.9667,-25.57,88,28,2.5,CN,1612724678
iralaya,15.0,-83.2333,30.0,65,75,4.63,HN,1612724679
santa cruz de tenerife,17.486,120.4348,23.31,80,0,2.05,PH,1612724679
kyabe,9.4515,18.9449,24.1,16,54,2.24,TD,1612724679
itapecerica da serra,-20.4725,-45.1256,22.44,85,74,3.37,BR,1612724680
altus,34.6381,-99.334,5.0,87,90,5.66,US,1612724680
dukat,62.55,155.55,-15.77,87,100,6.14,RU,1612724680
pastavy,55.1168,26.8326,-17.4,91,0,1.05,BY,1612724681
perelyub,51.8667,50.3667,-21.64,89,40,6.15,RU,1612724681
oblivskaya,48.5362,42.5014,-8.29,75,91,4.42,RU,1612724681
verkhnyaya inta,60.9844,40.2072,-27.27,89,92,2.97,RU,1612724682
nantucket,41.2835,-70.0995,0.56,100,90,9.77,US,1612724676
lorengau,-2.0226,147.2712,27.67,79,100,3.14,PG,1612724459
khash,28.2211,61.2158,9.81,36,0,2.61,IR,1612724683
talara,-4.5772,-81.2719,32.0,48,0,7.2,PE,1612724683
oranjestad,12.524,-70.027,29.0,65,40,7.2,AW,1612724665
sarankhola,22.3082,89.7897,15.56,49,0,1.92,BD,1612724684
turgenevo,54.8455,46.3297,-17.67,91,100,6.32,RU,1612724684
half moon bay,6.3807,-10.6953,28.0,78,20,1.54,LR,1612724685
bontang,0.1333,117.5,26.2,82,100,0.74,ID,1612724413
mato verde,41.0961,-8.1294,10.0,9,100,2.49,PT,1612724685
tura,25.5198,90.2201,14.5,46,0,1.33,IN,1612724686
narrabri,-30.3167,149.7833,19.0,77,0,6.17,AU,1612724686
cagayan de tawi-tawi,6.9747,118.5144,27.14,84,100,5.02,PH,1612724686
zhob,31.3411,69.4481,12.43,39,0,0.14,PK,1612724687
poso,-1.3959,120.7524,26.67,80,90,1.33,ID,1612724687
peace river,48.3083,38.0721,-7.74,74,99,2.12,UA,1612724688
sao felix do xingu,20.5113,76.2129,16.47,29,30,2.72,IN,1612724688
yulara,-25.2406,130.9889,23.0,35,1,3.09,AU,1612724690
nampula,-15.1165,39.2666,22.43,89,100,1.46,MZ,1612724690
bud,39.447,-86.1758,-10.0,48,1,3.58,US,1612724690
hualmay,-11.0964,-77.6139,24.86,63,100,4.2,PE,1612724483
kirakira,-10.4544,161.9205,26.12,80,10,3.15,SB,1612724689
manadhoo,5.7667,73.3833,27.47,72,64,4.08,MV,1612724692
yizheng,24.6706,103.4296,7.07,99,100,0.76,CN,1612724692
opuwo,-18.0607,13.84,25.23,31,11,4.78,NA,1612724692
port blair,-7.0349,29.7638,23.75,74,100,1.78,CD,1612724556
waipawa,-41.4122,175.5153,18.33,82,75,7.72,NZ,1612724509
ileza,61.0533,43.9002,-28.23,88,100,3.15,RU,1612724694
saint-pierre,-21.3393,55.4781,26.0,78,0,2.57,RE,1612724524
cidreira,-30.1811,-50.2056,24.37,62,0,4.59,BR,1612724694
panalingaan,8.7842,117.4231,25.58,83,100,0.89,PH,1612724695
ostrovnoy,68.0531,39.5131,-13.95,93,100,2.64,RU,1612724695
las palmas,49.7393,19.4295,-6.11,3,100,0.89,PL,1612724696
lagoa,39.05,-27.9833,14.31,74,100,9.28,PT,1612724696
suntar,62.1444,117.6319,-16.53,93,100,3.95,RU,1612724696
makakilo city,21.3524,-158.0865,22.0,56,1,1.54,US,1612724697
tarko-sale,64.9225,77.785,-6.22,98,100,6.57,RU,1612724697
westport,41.1415,-73.3579,-0.56,93,90,5.14,US,1612724697
camopi,3.1655,-52.3158,23.56,97,100,1.87,GF,1612724698
pareora,-44.4871,171.2132,13.89,97,17,1.79,NZ,1612724698
derzhavinsk,51.1,66.3167,-11.54,96,100,3.42,KZ,1612724699
busia,0.4544,34.0758,23.33,43,49,2.15,UG,1612724699
touros,-5.1989,-35.4608,31.0,62,40,7.72,BR,1612724700
toora-khem,52.4675,96.11,-12.59,92,100,1.24,RU,1612724700
comodoro rivadavia,-13.6631,-59.7858,30.28,48,50,1.59,BR,1612724700
omboue,-1.5746,9.2618,26.3,84,100,2.41,GA,1612724701
kailua,21.4022,-157.7394,21.11,64,20,1.54,US,1612724701
lar,26.2039,83.9717,12.18,60,0,2.42,IN,1612724701
erzin,36.9559,36.2,15.0,67,40,5.14,TR,1612724702
ayolas,-27.4,-56.9,30.77,37,0,2.3,PY,1612724703
north bend,50.3333,3.6667,0.0,100,90,3.98,FR,1612724704
cockburn town,-32.0833,141.0,17.0,48,0,3.6,AU,1612724705
cape coast,-36.413,-71.9028,22.0,60,75,2.57,CL,1612724706
qasigiannguit,68.8193,-51.1922,-3.0,36,0,7.72,GL,1612724706
namibe,-15.1961,12.1522,22.84,76,100,1.88,AO,1612724706
ilulissat,69.2167,-51.1,-3.0,36,0,7.72,GL,1612724707
rafraf,37.1904,10.1837,13.0,88,40,3.09,TN,1612724707
seara,41.1818,-7.8003,9.44,92,100,1.34,PT,1612724708
komsomolskiy,40.4272,71.7189,7.11,84,99,0.98,UZ,1612724709
cherat,33.8233,71.8915,12.0,71,40,2.06,PK,1612724709
iringa,-7.7667,35.7,16.86,92,100,1.07,TZ,1612724599
buraydah,26.326,43.975,13.0,94,40,2.57,SA,1612724710
fort nelson,52.6517,6.3861,-5.56,91,100,1.34,NL,1612724576
ak-dovurak,51.1833,90.6,-16.69,89,100,0.18,RU,1612724710
aginskoye,51.1,114.53,-20.52,89,43,1.42,RU,1612724711
ipora,-16.4419,-51.1178,25.54,85,45,2.78,BR,1612724469
portland,45.5234,-122.6762,7.78,76,75,1.54,US,1612724431
dunedin,-45.8742,170.5036,14.44,90,88,1.41,NZ,1612724712
atambua,-9.1061,124.8925,23.83,89,100,1.86,ID,1612724712
dublin,37.7021,-121.9358,16.11,51,1,1.54,US,1612724707
istok,42.7808,20.4875,9.0,66,0,6.69,XK,1612724713
nhulunbuy,-12.2333,136.7667,27.0,83,75,3.09,AU,1612724714
mayahi,13.9553,7.6712,23.18,16,91,3.89,NE,1612724655
jalu,29.0331,21.5482,19.69,26,92,6.12,LY,1612724714
coxim,-18.5067,-54.76,32.15,36,3,2.15,BR,1612724715
garden city,53.688,12.0492,-2.22,58,90,11.32,DE,1612724715
poronaysk,49.2167,143.1167,-18.21,87,100,3.06,RU,1612724476
juneau,58.3019,-134.4197,-10.0,92,75,2.43,US,1612724716
marzuq,14.4,46.4667,16.72,64,0,0.38,YE,1612724553
dubrovnik,42.6481,18.0922,14.0,88,75,11.32,HR,1612724660
chibuto,-24.6867,33.5306,24.3,81,100,2.69,MZ,1612724717
mitu,1.1983,-70.1733,30.03,67,98,1.39,CO,1612724717
dengzhou,37.8086,120.7508,-2.0,83,0,2.72,CN,1612724718
xining,36.6167,101.7667,-4.23,57,6,1.04,CN,1612724718
voyvozh,62.892,54.9635,-32.14,86,100,4.16,RU,1612724718
houma,29.5958,-90.7195,14.44,62,1,5.14,US,1612724719
coahuayana,18.7333,-103.6833,25.0,65,20,2.95,MX,1612724719
nuuk,64.1835,-51.7216,1.0,40,0,6.69,GL,1612724720
muisne,0.6,-80.0333,29.0,84,75,3.09,EC,1612724720
imbituba,-28.24,-48.6703,28.0,54,20,6.69,BR,1612724720
pandan,14.0453,124.1694,26.24,83,99,7.34,PH,1612724721
grants pass,35.1473,-107.8514,13.0,13,1,6.69,US,1612724721
evensk,61.95,159.2333,-7.68,84,100,14.92,RU,1612724721
dhing,26.4667,92.4667,17.02,52,7,0.81,IN,1612724722
sept-iles,50.2001,-66.3821,-4.44,54,0,2.57,CA,1612724723
esso,55.9333,158.7,-5.08,93,100,6.47,RU,1612724703
moerai,-22.4333,-151.3333,27.23,73,36,4.45,PF,1612724724
alekseyevka,50.6309,38.6903,-14.0,88,8,3.96,RU,1612724724
salinopolis,-0.6136,-47.3561,27.33,83,100,4.47,BR,1612724725
sayyan,15.1718,44.3244,9.69,49,0,3.52,YE,1612724725
hoganas,56.1997,12.558,-3.89,68,100,6.69,SE,1612724726
kavaratti,10.5669,72.642,27.19,69,46,3.87,IN,1612724726
huarmey,-10.0681,-78.1522,25.17,60,98,4.45,PE,1612724726
manta,-0.95,-80.7333,30.0,70,40,2.06,EC,1612724717
sola,-13.8833,167.55,27.56,71,100,3.68,VU,1612724727
zhaotong,27.3167,103.7167,4.03,78,100,3.71,CN,1612724728
ingham,42.6,-84.3833,-11.0,57,90,3.09,US,1612724728
manavalakurichi,8.1333,77.3,27.0,69,20,4.23,IN,1612724729
west wendover,31.8024,-97.0917,13.0,50,1,5.66,US,1612724729
aklavik,68.2191,-135.0107,-25.0,64,90,6.17,CA,1612724729
miles city,35.1855,-120.7032,18.89,47,0,2.68,US,1612724730
taltal,-25.4,-70.4833,21.22,60,28,3.1,CL,1612724730
ixtapa,20.7,-105.2,24.0,64,1,4.63,MX,1612724731
zemio,5.0314,25.1361,22.79,21,8,1.2,CF,1612724731
alice springs,27.7523,-98.0697,25.0,33,1,6.17,US,1612724732
ulladulla,-35.35,150.4667,18.33,77,90,4.12,AU,1612724732
chhindwara,22.0667,78.9333,13.56,35,28,2.92,IN,1612724732
lata,40.1629,-8.3327,12.78,99,100,4.47,PT,1612724733
cafarnaum,-11.6936,-41.4683,27.99,56,98,1.9,BR,1612724733
givors,45.5833,4.7667,7.0,70,0,2.57,FR,1612724733
chulman,56.8479,124.9104,-34.09,83,11,0.67,RU,1612724734
buluang,13.3068,123.3425,24.16,87,100,2.68,PH,1612724734
ciucsangeorgiu,46.3167,25.95,2.22,74,100,1.72,RO,1612724734
noumea,-22.2763,166.4572,25.0,100,0,1.66,NC,1612724735
togur,58.3631,82.8265,-11.45,94,100,6.27,RU,1612724735
gat,31.61,34.7642,15.56,100,1,2.33,IL,1612724736
atar,20.5169,-13.0499,19.33,27,0,4.88,MR,1612724736
toma,12.7667,-2.8833,30.25,14,0,3.99,BF,1612724737
grand gaube,38.8755,-109.5012,14.0,13,1,7.72,US,1612724737
lukow,51.929,22.3796,-7.78,50,100,7.97,PL,1612724738
worland,44.0169,-107.9554,-15.0,72,90,4.12,US,1612724738
shieli,44.1667,66.75,3.56,89,64,4.69,KZ,1612724489
mecca,21.4267,39.8261,22.82,31,0,2.71,SA,1612724739
kruisfontein,-34.0033,24.7314,18.89,93,97,0.89,ZA,1612724701
ruangwa,-10.0667,38.9333,22.68,96,68,1.81,TZ,1612724739
aswan,24.0934,32.907,19.32,40,0,6.49,EG,1612724740
kalavad,22.2167,70.3833,20.0,34,0,3.09,IN,1612724650
solok,-0.7918,100.6593,26.0,83,20,2.57,ID,1612724741
mega,4.05,38.3,19.33,47,49,1.9,ET,1612724741
bodden town,51.1954,-2.5161,2.0,64,90,8.23,GB,1612724741
lima,-12.0432,-77.0282,26.11,69,75,4.12,PE,1612724091
yumen,40.2833,97.2,-2.86,75,100,0.89,CN,1612724742
boende,-0.2167,20.8667,25.44,71,97,0.38,CD,1612724743
angoche,-16.2325,39.9086,27.11,83,56,3.27,MZ,1612724529
fort wayne,52.6517,6.3861,-5.56,91,100,1.34,NL,1612724646
talavera,15.6167,120.9333,24.0,78,40,1.03,PH,1612724744
dano,11.15,-3.0667,30.84,13,27,0.7,BF,1612724744
takoradi,4.8845,-1.7554,27.13,85,100,5.54,GH,1612724745
dauphin,51.1494,-100.0502,-29.0,63,1,9.26,CA,1612724745
asyut,27.181,31.1837,17.0,63,0,4.12,EG,1612724745
muros,42.7762,-9.0603,13.33,93,100,2.68,ES,1612724712
tazovskiy,67.4667,78.7,-24.14,90,100,8.62,RU,1612724746
wilmington,34.2257,-77.9447,9.0,71,75,6.69,US,1612724660
gus-khrustalnyy,55.6111,40.6519,-14.75,94,100,4.38,RU,1612724747
sangmelima,2.9333,11.9833,24.04,72,78,2.12,CM,1612724747
mao,39.8885,4.2658,8.0,93,20,2.06,ES,1612724748
san carlos de bariloche,13.3034,-4.8956,28.76,15,99,6.95,ML,1612724649
kang,-23.6752,22.7876,21.03,84,100,3.55,BW,1612724749
poddorye,57.4695,31.1156,-11.55,96,93,2.56,RU,1612724749
wallacetown,-46.3333,168.2667,12.09,80,98,1.48,NZ,1612724749
praia,14.9215,-23.5087,21.0,64,75,9.26,CV,1612724750
samarai,-10.6167,150.6667,27.65,77,100,2.32,PG,1612724750
pyapon,16.2833,95.6833,21.9,68,3,3.57,MM,1612724750
biankouma,7.7391,-7.6138,28.15,49,48,1.48,CI,1612724751
usinsk,65.9939,57.5281,-29.73,86,100,7.14,RU,1612724751
tarakan,3.3,117.6333,26.38,82,100,3.34,ID,1612724752
nova olimpia,-5.5279,-46.7049,27.91,83,38,0.45,BR,1612724753
pirojpur,22.5667,89.9833,16.18,46,0,2.34,BD,1612724753
codajas,-3.8367,-62.0569,32.12,60,63,1.56,BR,1612724754
haines junction,59.2286,-135.4441,-6.0,42,90,5.66,US,1612724754
yar-sale,66.8333,70.8333,-24.15,90,100,11.09,RU,1612724609
kieta,-6.2167,155.6333,26.6,78,36,2.07,PG,1612724755
hamilton,39.1834,-84.5333,-4.44,38,1,4.12,US,1612724493
xiongyue,40.1774,122.1228,-8.6,82,0,1.89,CN,1612724755
amga,60.8953,131.9608,-36.94,81,2,0.35,RU,1612724756
oistins,13.0667,-59.5333,28.0,57,75,10.8,BB,1612724756
zhigalovo,54.8097,105.1578,-9.94,91,90,1.13,RU,1612724757
nizwa,22.9333,57.5333,14.31,57,0,1.84,OM,1612724757
orlik,52.5178,99.825,-15.26,81,100,0.91,RU,1612724539
shediac,46.2198,-64.5411,-0.56,37,75,2.57,CA,1612724459
gorgan,36.8387,54.4348,11.0,93,90,1.19,IR,1612724758
sapele,5.8941,5.6767,28.8,74,97,3.23,NG,1612724758
pionerskiy,54.9508,20.2275,-14.0,78,0,4.0,RU,1612724759
luganville,-15.5333,167.1667,25.08,73,0,2.69,VU,1612724759
ust-tsilma,65.441,52.1498,-29.97,85,100,4.39,RU,1612724760
barra do garcas,-11.0894,-43.1417,27.34,73,95,3.64,BR,1612724760
kokino,52.4964,34.7808,-18.32,93,0,3.36,RU,1612724761
awjilah,29.1081,21.2869,19.88,25,99,6.34,LY,1612724522
caucaia,-3.7361,-38.6531,30.0,70,40,6.69,BR,1612724761
karpathos,35.507,27.2132,17.0,77,70,5.14,GR,1612724762
kondinskoye,59.6481,67.41,-18.6,92,100,6.16,RU,1612724762
mizdah,31.4451,12.9801,18.35,31,39,5.78,LY,1612724763
algiers,36.7525,3.042,13.0,76,40,3.6,DZ,1612724563
dolores,-36.3132,-57.6792,24.17,61,62,6.82,AR,1612724719
corn island,44.6075,1.8957,3.33,93,90,6.69,FR,1612724765
beruwala,6.4788,79.9828,24.44,89,0,2.66,LK,1612724766
banjar,-8.19,114.9675,27.0,83,20,2.06,ID,1612724766
bjerkvik,68.5597,17.5189,-1.11,69,75,3.6,NO,1612724767
palmer,42.1584,-72.3287,-1.11,86,90,3.6,US,1612724350
preobrazheniye,42.9019,133.9064,-14.99,85,0,5.0,RU,1612724767
maniitsoq,65.4167,-52.9,-2.65,80,0,7.63,GL,1612724203
yugo-kamskiy,57.7053,55.5894,-18.0,78,75,5.0,RU,1612724768
manggar,-2.8833,108.2667,26.49,82,100,5.89,ID,1612724768
kaputa,-8.4689,29.6619,21.91,82,100,2.03,ZM,1612724769
flagstaff,35.1981,-111.6513,13.89,17,1,2.06,US,1612724491
paranaiba,-19.6772,-51.1908,28.81,51,87,3.1,BR,1612724490
mugumu,-1.85,34.7,17.24,93,96,1.33,TZ,1612724536
rutland,43.6167,-73.0162,-1.11,80,90,4.63,US,1612724770
khao wong,12.3574,102.4387,23.54,87,19,0.6,TH,1612724771
mangai,-4.05,19.5333,23.9,77,87,0.77,CD,1612724771
phitsanulok,16.9167,100.5,22.97,46,0,1.9,TH,1612724771
puerto leguizamo,36.5939,-6.233,14.0,72,75,5.14,ES,1612724665
kaeo,-35.1,173.7833,14.44,92,46,0.45,NZ,1612724150
springbok,-29.6643,17.8865,18.94,52,0,3.21,ZA,1612724530
ambilobe,-13.2,49.05,23.99,90,100,1.08,MG,1612723937
dubbo,-32.25,148.6167,16.0,88,23,3.6,AU,1612724565
shihezi,44.3,86.0333,-7.48,93,100,1.16,CN,1612724774
visby,57.6409,18.296,-5.0,93,75,2.06,SE,1612724774
kamaishi,39.2667,141.8833,-3.02,87,7,5.94,JP,1612724774
mikuni,36.2171,136.1519,2.0,93,75,6.17,JP,1612724775
moose factory,43.6558,-110.7183,-1.0,64,90,10.8,US,1612724775
urubicha,-15.3833,-62.95,35.4,37,100,0.38,BO,1612724776
terney,45.0503,136.6092,-19.66,86,0,7.21,RU,1612724776
tual,-5.6667,132.75,28.41,80,100,7.54,ID,1612724777
kazachinskoye,57.6953,93.2761,-0.65,95,94,4.52,RU,1612724777
khandyga,62.6667,135.6,-36.75,82,72,1.23,RU,1612724291
mehamn,71.0357,27.8492,-4.0,80,75,13.89,NO,1612724325
acapulco,16.8634,-99.8901,30.0,58,20,3.09,MX,1612724548
jiuquan,39.7432,98.5174,-1.14,71,100,1.95,CN,1612724762
aljezur,37.3191,-8.8033,12.78,100,94,1.34,PT,1612724779
kulhudhuffushi,6.6221,73.07,27.4,76,100,4.99,MV,1612724444
namatanai,-3.6667,152.4333,26.76,80,100,1.98,PG,1612724780
keta,5.9179,0.9879,30.0,79,20,5.66,GH,1612724780
yantal,56.8471,105.2542,-6.53,93,99,2.57,RU,1612724781
margate,51.3813,1.3862,-0.56,84,100,3.13,GB,1612724239
pordim,43.3833,24.85,4.0,93,90,3.09,BG,1612724782
marsaxlokk,35.8419,14.5431,17.22,82,0,5.14,MT,1612724782
mandiana,10.6333,-8.6833,30.27,16,77,4.22,GN,1612724783
capreol,46.706,-80.9225,-8.33,48,20,5.14,CA,1612724783
ketchikan,55.3422,-131.6461,-2.0,68,1,4.63,US,1612724784
gazanjyk,39.2446,55.5154,11.76,49,100,5.43,TM,1612724784
itarana,-19.8739,-40.8753,21.67,98,100,0.63,BR,1612724784
kaoma,-14.7833,24.8,21.04,90,100,1.28,ZM,1612724785
