City,Lat,Lng,Max Temp,Humidity,Cloudiness,Wind Speed,Country,Date
east london,65.0,-15.0,2.0,75,75,4.63,IS,1612732175
aklavik,68.2191,-135.0107,-27.0,69,90,6.17,CA,1612732175
severo-kurilsk,50.6789,156.125,-9.43,88,30,3.92,RU,1612732176
punta arenas,8.9897,125.34,23.42,95,100,0.79,PH,1612732177
rikitea,-23.1203,-134.9692,25.36,72,96,5.35,PF,1612732177
hermanus,-34.4187,19.2345,18.33,78,5,1.88,ZA,1612732177
port alfred,-7.0349,29.7638,23.44,75,100,2.84,CD,1612732178
plettenberg bay,51.2167,7.8833,-3.89,85,100,0.45,DE,1612732178
kapaa,22.0752,-159.319,23.33,56,1,1.54,US,1612732178
ushuaia,-54.8,-68.3,17.0,55,75,3.09,AR,1612732133
qaanaaq,77.484,-69.3632,-10.28,85,79,3.42,GL,1612732135
taltal,-25.4,-70.4833,20.97,61,28,3.73,CL,1612732179
clyde river,41.3042,-82.9752,-9.44,68,100,0.89,US,1612732159
busselton,-33.65,115.3333,16.67,99,87,0.89,AU,1612732132
jamestown,42.097,-79.2353,-8.89,73,90,6.69,US,1612732181
hambantota,6.1241,81.1185,25.01,81,9,7.22,LK,1612732096
roblin,51.23,-101.3565,-33.43,83,38,5.45,CA,1612732182
ribeira grande,42.7461,-8.4439,11.67,100,75,3.09,ES,1612732182
necochea,-38.5473,-58.7368,15.56,82,100,7.38,AR,1612732182
dalaba,10.7,-12.25,20.55,27,95,1.96,GN,1612732183
gilgit,35.9221,74.3087,2.48,50,81,1.18,PK,1612732183
bambous virieux,-20.2567,57.4061,27.0,78,75,4.12,MU,1612732183
pevek,69.7008,170.3133,-21.62,86,0,0.6,RU,1612732136
lahaina,20.8783,-156.6825,25.0,53,20,3.6,US,1612732184
provideniya,64.3833,-173.3,-19.89,81,64,7.35,RU,1612732171
vostok,46.4856,135.8833,-26.51,90,100,1.41,RU,1612731933
padang,-0.9492,100.3543,24.0,88,20,1.03,ID,1612731930
buraydah,26.326,43.975,13.0,94,75,1.54,SA,1612731897
puerto ayora,36.5939,-6.233,12.78,94,75,5.66,ES,1612732176
carnarvon,-24.8667,113.6333,24.0,100,40,4.63,AU,1612732188
hue,16.4667,107.6,23.0,88,75,1.03,VN,1612732188
takoradi,4.8845,-1.7554,26.91,86,99,5.08,GH,1612732189
cabo san lucas,-8.2833,-35.0333,27.0,69,40,4.12,BR,1612732189
bluff,-46.6,168.3333,14.59,73,97,2.33,NZ,1612732189
boguchany,58.3814,97.4531,-3.98,96,62,2.77,RU,1612732190
havoysund,70.9963,24.6622,-3.0,74,75,10.8,NO,1612732190
pangnirtung,66.1451,-65.7125,1.0,44,20,7.2,CA,1612732191
paungde,18.4833,95.5,19.02,54,13,1.63,MM,1612732191
mahebourg,-20.4081,57.7,27.0,78,75,4.12,MU,1612731955
udimskiy,61.1417,45.9144,-29.11,86,100,4.18,RU,1612732192
vaini,-21.2,-175.2,26.0,78,75,5.66,TO,1612732193
nizhnevartovsk,60.9344,76.5531,-9.0,73,100,9.0,RU,1612732193
san policarpo,13.3034,-4.8956,25.81,18,97,7.54,ML,1612732119
kokopo,-4.352,152.2633,25.83,84,67,2.12,PG,1612732194
hobart,-42.8794,147.3294,13.33,58,40,6.17,AU,1612732058
namibe,-15.1961,12.1522,22.84,74,100,2.01,AO,1612732148
saint-philippe,-21.3585,55.7679,27.0,74,0,2.06,RE,1612732195
mataura,-46.1927,168.8643,17.45,57,98,1.29,NZ,1612732195
iquitos,-3.7481,-73.2472,28.0,78,75,2.06,PE,1612732196
hun,29.1268,15.9477,23.25,17,100,6.78,LY,1612732196
bredasdorp,-34.5322,20.0403,18.0,68,30,2.57,ZA,1612732141
kaitangata,-46.2817,169.8464,18.33,80,100,0.89,NZ,1612731918
nanortalik,60.1432,-45.2371,-1.54,89,91,4.13,GL,1612732197
albany,42.6001,-73.9662,-0.56,72,100,0.56,US,1612732106
chokurdakh,70.6333,147.9167,-28.32,87,100,3.92,RU,1612732198
mandalgovi,45.7625,106.2708,-10.97,82,0,4.39,MN,1612732198
sitka,57.0531,-135.33,2.0,32,1,1.26,US,1612732156
vila franca do campo,42.0304,-8.1588,8.89,96,100,5.36,PT,1612732158
hithadhoo,-0.6,73.0833,27.71,70,74,3.25,MV,1612732200
dikson,73.5069,80.5464,-35.61,85,90,7.12,RU,1612732200
smolyaninovo,43.2956,132.4675,-18.0,78,20,3.0,RU,1612732200
cape town,-36.413,-71.9028,23.0,53,75,0.51,CL,1612732201
kodiak,57.79,-152.4072,-1.0,64,1,1.54,US,1612732201
puerto escondido,36.5939,-6.233,12.78,94,75,5.66,ES,1612732202
mwense,-10.3845,28.698,20.84,90,100,1.28,ZM,1612732087
shingu,33.7333,135.9833,7.52,69,0,4.68,JP,1612732203
yellowknife,62.456,-114.3525,-35.0,61,1,2.06,CA,1612732137
portel,-1.9356,-50.8211,29.99,59,54,2.33,BR,1612732205
suratgarh,29.3167,73.9,12.59,44,0,0.57,IN,1612732205
port macquarie,-7.0349,29.7638,23.44,75,100,2.84,CD,1612732206
saskylakh,71.9167,114.0833,-38.51,78,28,6.13,RU,1612732152
tuktoyaktuk,69.4541,-133.0374,-32.0,68,75,7.2,CA,1612732206
chuy,-33.6971,-53.4616,21.96,67,16,4.67,UY,1612732155
gniezno,52.5348,17.5826,-8.33,47,96,6.26,PL,1612732207
longyearbyen,78.2186,15.6401,-10.0,67,75,7.2,SJ,1612732149
codrington,-38.2667,141.9667,13.92,71,100,5.34,AU,1612732209
hualmay,-11.0964,-77.6139,24.33,66,98,4.12,PE,1612732209
saint-pierre,-21.3393,55.4781,27.0,74,0,2.06,RE,1612732083
butaritari,3.0707,172.7902,27.38,80,96,8.9,KI,1612732210
shakawe,-18.3667,21.85,21.42,90,100,2.76,BW,1612732211
raudeberg,61.9875,5.1352,-6.0,58,0,3.6,NO,1612732212
victoria,22.2855,114.1577,19.44,77,0,0.45,HK,1612732213
berlevag,70.8578,29.0864,-5.0,93,75,11.32,NO,1612732213
college,64.8569,-147.8028,-22.78,76,20,0.98,US,1612732060
gjirokaster,40.0758,20.1389,16.67,77,40,10.8,AL,1612732214
ponta do sol,38.7333,-28.2667,15.0,77,40,4.12,PT,1612732215
luwuk,-0.9516,122.7875,25.74,74,100,0.81,ID,1612732169
leningradskiy,69.3833,178.4167,-25.85,82,0,3.03,RU,1612732058
konza,-1.7426,37.1294,18.0,94,75,4.12,KE,1612732216
margate,51.3813,1.3862,-0.56,80,100,3.58,GB,1612732216
palmer,42.1584,-72.3287,-2.22,93,90,3.6,US,1612732100
san juan,13.3034,-4.8956,25.81,18,97,7.54,ML,1612732119
vitoria da conquista,-20.3194,-40.3378,22.0,94,90,2.06,BR,1612732218
yeppoon,-23.1333,150.7333,26.0,83,90,3.6,AU,1612732198
bahia blanca,-12.0,-42.0,22.53,85,98,0.97,BR,1612732219
jaunjelgava,56.6167,25.0833,-13.33,89,78,0.45,LV,1612732219
narsaq,60.9167,-46.05,2.0,30,53,20.06,GL,1612732220
verkhnevilyuysk,63.4453,120.3167,-23.69,87,100,4.12,RU,1612732086
barrow,71.2906,-156.7887,-32.0,68,20,4.12,US,1612732138
ilulissat,69.2167,-51.1,-4.0,39,0,2.57,GL,1612732221
ekhabi,53.5102,142.9671,-12.31,94,100,11.99,RU,1612732221
rundu,-17.9333,19.7667,20.91,91,100,2.09,NA,1612732096
huarmey,-10.0681,-78.1522,24.8,62,99,4.56,PE,1612732222
deputatskiy,69.3,139.9,-33.65,85,2,0.78,RU,1612732222
fortuna,40.5982,-124.1573,12.78,81,20,6.17,US,1612732186
cassilandia,-19.1133,-51.7342,25.94,69,29,2.77,BR,1612732223
altamira,-3.2033,-52.2064,25.0,94,75,2.06,BR,1612732077
kirkland lake,47.6815,-122.2087,10.0,61,75,5.14,US,1612732224
stornoway,58.2093,-6.3865,2.0,69,90,5.14,GB,1612732224
woodstock,43.1334,-80.7497,-11.0,48,96,4.12,CA,1612732225
mar del plata,43.4002,-4.0094,11.67,87,40,1.03,ES,1612732226
caluquembe,-13.7833,14.6833,18.34,63,100,3.55,AO,1612732226
zharkovskiy,55.849,32.2697,-15.49,95,92,2.09,RU,1612732226
briancon,44.9,6.65,6.11,97,71,0.89,FR,1612732227
smithers,54.7804,-127.1743,-11.0,79,75,0.15,CA,1612732227
amot,59.5714,7.9877,-10.56,81,0,1.34,NO,1612732228
riberalta,-10.9833,-66.1,26.0,89,75,4.12,BO,1612732228
guerrero negro,17.6667,-100.0,29.95,30,0,0.92,MX,1612732228
khatanga,71.9667,102.5,-34.61,80,0,4.52,RU,1612732229
new norfolk,6.6518,-10.5932,26.0,94,20,1.39,LR,1612732230
caravelas,-17.7125,-39.2481,24.9,90,100,3.85,BR,1612732231
kudahuvadhoo,2.6708,72.8944,27.33,71,42,7.5,MV,1612732164
zhangye,38.9342,100.4517,-2.62,71,67,0.88,CN,1612732232
butembo,0.15,29.2833,15.24,56,19,1.3,CD,1612732233
san cristobal,13.3034,-4.8956,26.7,17,100,7.67,ML,1612732233
auki,-8.7676,160.7034,27.29,81,74,2.74,SB,1612732234
crab hill,37.2651,-76.4911,5.0,87,90,3.6,US,1612732234
kenai,60.5544,-151.2583,-12.0,78,1,3.09,US,1612732235
cherskiy,68.75,161.3,-19.83,68,6,0.66,RU,1612732235
asau,46.4333,26.4,-1.11,73,100,1.24,RO,1612732236
bolotnoye,55.6717,84.3981,-10.72,93,67,6.32,RU,1612731989
yumen,40.2833,97.2,-2.71,74,56,2.9,CN,1612732237
hilo,19.7297,-155.09,26.0,50,1,1.54,US,1612732237
noumea,-22.2763,166.4572,25.56,94,0,1.03,NC,1612731713
half moon bay,6.3807,-10.6953,26.0,94,20,2.88,LR,1612732238
klyuchevskiy,53.5317,119.4519,-27.53,87,73,1.19,RU,1612732239
saldanha,-33.0117,17.9442,18.0,68,0,6.69,ZA,1612732142
thompson,55.7435,-97.8558,-33.0,68,75,6.69,CA,1612732141
tiksi,71.6872,128.8694,-33.41,85,31,2.14,RU,1612732139
kalmunai,7.4167,81.8167,24.8,88,24,4.75,LK,1612732242
klaksvik,62.2266,-6.589,2.0,75,75,4.63,FO,1612732243
georgetown,5.4112,100.3354,27.0,83,20,1.54,MY,1612732158
harper,4.375,-7.7169,26.35,87,98,2.74,LR,1612732244
atuona,-9.8,-139.0333,26.37,75,18,9.66,PF,1612732244
kayes,14.0,-11.0,25.41,17,0,3.72,ML,1612732245
awbari,26.5921,12.7805,20.29,24,100,5.12,LY,1612732245
port elizabeth,-7.0349,29.7638,23.44,75,100,2.84,CD,1612732206
cidreira,-30.1811,-50.2056,23.56,65,0,4.07,BR,1612732228
porto walter,41.1496,-8.611,13.0,100,90,9.77,PT,1612732143
tommot,58.9564,126.2925,-31.77,80,0,0.91,RU,1612732247
pisco,-13.7,-76.2167,25.0,73,75,4.63,PE,1612732095
sao filipe,20.5113,76.2129,15.32,31,45,2.85,IN,1612732248
fjerritslev,57.0813,9.2664,-3.33,74,20,6.69,DK,1612732249
dour,50.3958,3.7779,-0.56,93,90,3.82,BE,1612732249
ancud,-41.8697,-73.8203,28.0,30,0,2.57,CL,1612732250
charlestown,-32.95,151.6667,22.22,83,31,4.47,AU,1612732186
altar,30.7,-111.8167,24.44,21,0,2.76,MX,1612732251
annau,37.8876,58.516,11.0,87,90,1.03,TM,1612732251
grindavik,63.8424,-22.4338,0.0,69,0,7.2,IS,1612732076
upernavik,72.7868,-56.1549,-7.38,79,19,1.22,GL,1612732252
carquefou,47.2982,-1.4902,4.0,75,0,2.57,FR,1612732253
novyy urgal,45.0072,38.9819,-2.78,93,90,4.0,RU,1612732253
proletariy,58.4342,31.7046,-14.1,95,81,2.09,RU,1612732254
yenangyaung,20.4667,94.8833,16.95,47,0,1.53,MM,1612732254
vicuna,-30.0319,-70.7081,27.22,33,1,0.89,CL,1612732255
nikolskoye,59.7035,30.7861,-8.0,86,75,6.0,RU,1612732255
kavieng,-2.5744,150.7967,28.54,72,75,3.48,PG,1612732066
san juan del sur,13.3034,-4.8956,25.81,18,97,7.54,ML,1612732119
alpena,45.0617,-83.4327,-11.11,52,75,4.63,US,1612732191
key west,32.7282,-101.7996,23.33,11,1,9.26,US,1612732257
vacaria,-28.5122,-50.9339,25.56,29,0,1.34,BR,1612732259
beatrice,40.2681,-96.747,-14.0,72,90,4.63,US,1612732259
kamenka,51.3223,42.7678,-21.7,91,14,4.4,RU,1612732260
tilichiki,60.4667,166.1,-12.28,96,100,6.81,RU,1612732033
airai,-8.9266,125.4092,15.96,100,100,1.17,TL,1612732075
marzuq,14.4,46.4667,16.09,59,1,1.56,YE,1612732002
orlik,52.5178,99.825,-16.35,81,99,0.79,RU,1612732261
lorengau,-2.0226,147.2712,27.88,78,100,2.97,PG,1612732139
tasiilaq,65.6145,-37.6368,-3.0,50,0,6.69,GL,1612732262
chake chake,23.86,103.046,10.37,96,100,1.48,CN,1612732262
iqaluit,63.7506,-68.5145,-1.0,69,90,8.75,CA,1612732263
mentougou,39.9392,116.0917,0.0,37,0,0.9,CN,1612732263
beloha,-25.1667,45.05,24.02,90,2,3.11,MG,1612732264
bethel,41.3712,-73.414,-1.67,93,90,2.57,US,1612732264
sasebo,33.1592,129.7228,8.89,29,38,3.13,JP,1612732265
pakruojis,55.9667,23.8667,-21.0,84,0,0.51,LT,1612732265
port lincoln,-7.0349,29.7638,23.44,75,100,2.84,CD,1612732265
torbay,47.6666,-52.7314,-0.56,64,20,11.83,CA,1612732266
abu samrah,24.6,72.7,9.03,47,0,1.84,IN,1612732266
cockburn town,-32.0833,141.0,15.0,58,0,2.57,AU,1612732267
sri aman,30.0381,-8.7951,13.0,88,0,3.6,MA,1612732268
isangel,-19.55,169.2667,26.0,83,20,2.78,VU,1612732268
spassk-dalniy,44.5978,132.8211,-23.71,90,76,1.02,RU,1612732268
sungairaya,0.7,108.9,23.87,90,98,2.65,ID,1612732269
yar-sale,66.8333,70.8333,-24.02,89,100,10.77,RU,1612732081
yushan,31.3776,120.9543,8.89,71,40,7.0,CN,1612732269
marystown,47.1666,-55.1483,-1.16,90,36,12.39,CA,1612732270
lensk,60.7253,114.9278,-12.1,94,100,1.56,RU,1612732270
taoudenni,22.6783,-3.9836,17.16,29,0,3.91,ML,1612732150
saint-francois,46.4154,3.9054,4.0,81,90,1.03,FR,1612732271
bengkulu,-3.8004,102.2655,24.17,83,98,2.85,ID,1612732069
avarua,-21.2078,-159.775,29.0,74,20,6.17,CK,1612732273
pemberton,50.3164,-122.8027,2.0,69,75,0.69,CA,1612732274
matara,5.9485,80.5353,23.44,90,0,1.91,LK,1612732092
bundaberg,-24.85,152.35,28.33,83,75,3.6,AU,1612732275
banepa,27.6298,85.5214,5.0,93,20,1.03,NP,1612732275
lagoa,39.05,-27.9833,14.47,76,100,8.84,PT,1612732276
kahului,20.8947,-156.47,25.0,53,20,3.6,US,1612732175
saint-augustin,51.226,-58.6502,-4.22,92,9,7.08,CA,1612732276
bad hersfeld,47.6333,9.8333,1.67,94,100,3.13,DE,1612732277
soledar,48.6794,38.089,-7.96,74,98,2.12,UA,1612732277
poum,-20.2333,164.0167,26.35,72,73,1.23,NC,1612732087
ketchikan,55.3422,-131.6461,-1.0,64,1,5.66,US,1612732278
bandarbeyla,9.4942,50.8122,24.14,80,34,8.18,SO,1612732279
ambilobe,-13.2,49.05,23.51,91,78,1.16,MG,1612732279
fernley,39.608,-119.2518,15.0,13,0,3.13,US,1612732170
kovdor,67.5662,30.4758,-11.65,95,99,2.98,RU,1612732280
coquimbo,-29.9533,-71.3436,20.0,56,0,6.17,CL,1612732206
waldkirchen,48.7327,13.6008,0.56,82,100,1.21,DE,1612732281
dicabisagan,17.0818,122.4157,23.09,85,12,1.41,PH,1612732282
richards bay,46.8361,-95.9123,-23.89,64,1,3.09,US,1612732282
batsfjord,70.6345,29.7185,-5.0,73,75,11.32,NO,1612732282
nishihara,26.1842,127.7558,17.0,63,1,1.54,JP,1612732283
najran,17.4924,44.1277,18.0,42,40,2.06,SA,1612732089
tuatapere,-46.1333,167.6833,16.58,66,100,2.94,NZ,1612732284
marfino,55.7028,37.3822,-13.0,78,75,3.0,RU,1612732284
iracoubo,5.4802,-53.2011,25.69,85,100,6.25,GF,1612732285
bugiri,0.5714,33.7417,20.35,57,20,1.65,UG,1612732285
faanui,-16.4833,-151.75,27.26,76,2,5.64,PF,1612732136
balao,-2.9167,-79.8167,29.0,65,75,3.6,EC,1612732286
sangar,63.9242,127.4739,-36.05,78,0,1.29,RU,1612732286
daru,-9.0763,143.2092,25.53,87,66,4.27,PG,1612732287
inskoy,54.4297,86.44,-5.81,96,99,4.94,RU,1612732287
uzhur,55.3036,89.8339,-6.65,93,84,3.29,RU,1612732288
at-bashi,41.1702,75.8106,-4.82,83,80,0.89,KG,1612732288
lata,40.1629,-8.3327,13.33,93,100,1.34,PT,1612732191
eyl,7.9803,49.8164,24.06,79,37,7.7,SO,1612732289
augustow,53.8432,22.9798,-17.26,92,56,4.74,PL,1612732289
saint-denis,48.9167,2.3333,0.56,80,90,2.06,FR,1612732290
manaure,11.7751,-72.4445,30.13,53,100,7.25,CO,1612732290
husavik,66.0449,-17.3389,0.0,74,90,1.54,IS,1612732291
port hedland,-7.0349,29.7638,23.44,75,100,2.84,CD,1612732206
arraial do cabo,-22.8362,-46.646,26.0,57,20,7.2,BR,1612732291
sulangan,11.1373,123.7228,27.02,82,100,9.16,PH,1612732292
ondjiva,-17.0667,15.7333,27.01,33,95,2.51,AO,1612732292
maracas,-13.4411,-40.4308,23.05,75,96,0.13,BR,1612732292
ostrovnoy,68.0531,39.5131,-15.59,92,79,6.14,RU,1612732293
vazante,-17.9869,-46.9078,22.32,91,100,2.06,BR,1612732294
pokosnoye,55.5258,101.0536,-10.99,94,51,2.29,RU,1612732294
qingdao,36.0986,120.3719,-1.67,80,0,1.0,CN,1612732294
souillac,-20.5167,57.5167,27.0,78,40,4.63,MU,1612732295
naze,28.3667,129.4833,14.22,66,0,4.34,JP,1612732295
comodoro rivadavia,-13.6631,-59.7858,26.91,68,97,1.03,BR,1612732296
beberibe,-4.1797,-38.1306,28.0,78,0,4.63,BR,1612732296
geraldton,-28.7667,114.6,19.0,88,90,3.6,AU,1612732056
athabasca,54.7169,-113.2854,-28.0,76,41,1.54,CA,1612732242
methoni,36.8197,21.7049,16.11,100,100,2.06,GR,1612732297
portland,45.5234,-122.6762,8.33,66,75,5.14,US,1612732158
byron bay,44.0327,-92.6455,-19.0,55,1,2.57,US,1612732298
sur,22.5667,59.5289,17.98,73,0,1.94,OM,1612732082
atherton,53.5237,-2.4935,2.78,52,100,2.68,GB,1612732050
kruisfontein,-34.0033,24.7314,18.33,90,97,0.45,ZA,1612732145
srednekolymsk,67.45,153.6833,-24.53,84,78,1.52,RU,1612732300
hasaki,35.7333,140.8333,0.0,86,40,1.54,JP,1612732107
tarnobrzeg,50.573,21.6794,-7.78,59,100,2.24,PL,1612732301
lavrentiya,65.5833,-171.0,-23.27,85,0,4.19,RU,1612732170
fairbanks,64.8378,-147.7164,-22.78,76,1,0.96,US,1612732207
vanavara,60.34,102.2797,-2.17,98,100,4.49,RU,1612732302
vikhorevka,56.1201,101.1636,-7.0,68,85,2.0,RU,1612732302
lamesa,32.7376,-101.951,22.78,11,0,3.58,US,1612732302
lebu,-37.6167,-73.65,16.98,78,9,2.86,CL,1612732224
hirakud,21.5167,83.8667,13.87,43,0,3.07,IN,1612732303
kurilsk,45.2333,147.8833,-10.14,91,100,6.61,RU,1612732186
atasu,48.6814,71.6433,-2.9,95,99,8.33,KZ,1612732304
zabaykalsk,49.6333,117.3167,-24.5,82,0,1.57,RU,1612732305
port hardy,-7.0349,29.7638,23.17,75,100,2.66,CD,1612732305
oranjestad,12.524,-70.027,28.0,69,40,9.26,AW,1612732305
pimenta bueno,-20.4839,-45.7989,21.77,88,35,2.22,BR,1612732306
hofn,64.2539,-15.2082,2.38,89,100,7.85,IS,1612732306
coihaique,-45.5752,-72.0662,26.0,27,0,3.6,CL,1612732161
katsuura,35.1333,140.3,5.56,52,40,1.54,JP,1612732132
wilmington,34.2257,-77.9447,10.0,71,90,7.72,US,1612732125
banjar,-8.19,114.9675,27.0,83,20,3.09,ID,1612732108
acurenam,1.0322,10.6488,20.65,97,39,1.48,GQ,1612732309
itaituba,-4.2761,-55.9836,34.0,59,20,3.6,BR,1612732088
mys shmidta,62.0589,48.6201,-28.93,84,100,4.2,RU,1612732309
vallenar,-28.5708,-70.7581,28.58,25,0,4.27,CL,1612732310
moss vale,59.434,10.6577,-7.78,79,5,4.12,NO,1612732310
udachnyy,66.4167,112.4,-31.2,84,99,2.55,RU,1612732096
belaya gora,49.029,25.7706,-7.88,96,100,8.21,UA,1612732311
ban nahin,20.0173,104.6053,18.84,81,100,0.62,LA,1612732312
salym,60.0625,71.4789,-14.59,92,97,5.92,RU,1612732312
vardo,70.3705,31.1107,-5.0,86,90,16.46,NO,1612732069
simpang,-1.2667,104.0833,24.56,87,100,1.93,ID,1612732313
sioux lookout,42.7333,-96.2336,-15.56,60,90,3.09,US,1612732314
castro,-24.7911,-50.0119,21.54,66,0,2.05,BR,1612732069
atambua,-9.1061,124.8925,23.63,89,100,1.64,ID,1612732314
gat,31.61,34.7642,14.44,91,30,0.85,IL,1612732315
marsaxlokk,35.8419,14.5431,18.0,72,0,4.63,MT,1612732315
praia,14.9215,-23.5087,20.0,68,40,8.75,CV,1612732315
nampula,-15.1165,39.2666,25.0,83,40,2.06,MZ,1612732316
champerico,14.3,-91.9167,34.0,43,40,3.09,GT,1612732316
akyab,20.15,92.9,20.46,55,0,7.97,MM,1612732093
bathsheba,13.2167,-59.5167,27.0,61,20,8.75,BB,1612732317
karabash,55.4808,60.2157,-22.62,86,100,3.89,RU,1612732317
arman,59.7,150.1667,-11.12,85,100,7.56,RU,1612732318
namatanai,-3.6667,152.4333,27.25,79,100,1.44,PG,1612732184
mana,5.6592,-53.7767,25.68,86,96,5.67,GF,1612732319
rocha,-34.4833,-54.3333,20.96,80,98,4.53,UY,1612732320
nouadhibou,20.931,-17.0347,18.0,72,0,8.23,MR,1612732320
sao gabriel da cachoeira,20.5113,76.2129,15.32,31,45,2.85,IN,1612732320
mount gambier,53.6597,-1.8537,0.56,80,100,2.68,GB,1612732321
eureka,40.8021,-124.1637,12.22,72,0,3.13,US,1612732321
hay river,52.0705,-3.1274,1.11,77,99,1.34,GB,1612732322
manokwari,-0.8667,134.0833,26.07,78,100,1.07,ID,1612732322
sistranda,63.7256,8.834,-6.0,86,20,5.66,NO,1612732323
krasnoye,49.9145,24.6134,-7.0,93,75,7.0,UA,1612732323
dunedin,-45.8742,170.5036,16.11,88,87,0.45,NZ,1612732324
miri,4.4148,114.0089,26.0,94,40,2.57,MY,1612732324
iskateley,67.6803,53.1512,-27.11,87,100,7.6,RU,1612732324
tigil,57.8,158.6667,-3.13,94,1,8.82,RU,1612732325
kyra,49.5776,111.9753,-17.26,87,100,1.07,RU,1612732325
boyolangu,-8.1181,111.8935,23.9,91,100,3.06,ID,1612732326
aleksandro-nevskiy,53.4751,40.2095,-16.98,93,98,4.5,RU,1612732326
ucluelet,48.9329,-125.5528,7.22,70,40,5.66,CA,1612732327
ipixuna,-1.7625,-48.8043,26.0,78,40,4.63,BR,1612732327
shahrud,36.4182,54.9763,7.28,79,100,2.73,IR,1612732328
oriximina,-1.7656,-55.8661,31.41,54,100,1.61,BR,1612732328
liverpool,53.4106,-2.9779,2.0,60,90,7.2,GB,1612732031
nokaneng,-19.6667,22.2667,21.22,91,100,4.04,BW,1612732329
kaithal,29.8,76.3833,11.04,61,0,1.62,IN,1612732329
angoche,-16.2325,39.9086,26.81,84,53,3.06,MZ,1612732329
parkes,-33.1333,148.1833,21.67,69,57,0.89,AU,1612732330
wagar,16.1525,36.2032,17.36,75,0,6.89,SD,1612732330
derzhavinsk,51.1,66.3167,-10.47,96,100,2.1,KZ,1612732331
maumere,-8.6199,122.2111,26.34,76,100,1.4,ID,1612732331
denpasar,-8.65,115.2167,27.0,83,20,3.09,ID,1612732332
ishigaki,24.3448,124.1572,20.98,73,27,6.71,JP,1612732141
san vicente,13.3034,-4.8956,26.7,17,100,7.67,ML,1612732333
senanga,-16.1167,23.2667,21.52,88,100,1.3,ZM,1612732334
haigerloch,48.3661,8.8036,4.44,10,100,2.63,DE,1612732334
kusti,13.1629,32.6635,20.48,25,0,5.28,SD,1612732147
bardiyah,31.7561,25.0865,18.81,44,99,5.49,LY,1612732335
ahipara,-35.1667,173.1667,20.46,65,12,4.4,NZ,1612732336
imbituba,-28.24,-48.6703,25.0,78,40,6.69,BR,1612732190
jalingo,8.8833,11.3667,26.54,16,100,1.84,NG,1612732336
rio grande,38.3,21.7833,16.0,51,0,1.67,GR,1612732337
yulara,-25.2406,130.9889,23.0,35,0,3.09,AU,1612732087
victor harbor,42.9826,-77.4089,-4.44,61,100,0.89,US,1612732338
gusau,12.1628,6.6614,22.15,19,6,3.88,NG,1612732338
aswan,24.0934,32.907,16.85,48,0,5.34,EG,1612732338
khandyga,62.6667,135.6,-36.41,83,76,1.2,RU,1612732339
yaan,7.3833,8.5667,28.16,15,94,1.1,NG,1612732339
norman wells,35.2226,-97.4395,2.0,93,90,2.57,US,1612732340
kamiiso,41.8167,140.65,-6.88,91,81,7.35,JP,1612732340
tucuma,-0.1833,-50.05,26.03,88,93,3.08,BR,1612732337
wuwei,37.9281,102.6414,-2.28,70,26,1.38,CN,1612732341
maraa,-1.8333,-65.3667,31.27,62,95,1.76,BR,1612732341
saavedra,9.9852,123.3716,25.33,88,100,4.98,PH,1612732341
porto empedocle,41.1496,-8.611,13.0,100,90,9.77,PT,1612732143
thinadhoo,0.5333,72.9333,27.64,72,38,4.56,MV,1612732161
kungurtug,50.5994,97.5228,-14.3,84,37,0.93,RU,1612732342
buala,-8.145,159.5921,27.8,79,71,3.57,SB,1612732067
bud,39.447,-86.1758,-9.44,53,100,2.77,US,1612732343
vila velha,42.0304,-8.1588,8.89,96,100,5.36,PT,1612732158
aksarka,66.5606,67.7975,-27.48,88,100,13.17,RU,1612732344
formosa,-26.1775,-58.1781,30.0,48,0,2.57,AR,1612732344
olafsvik,64.8945,-23.7142,1.28,83,20,7.0,IS,1612732345
hamilton,39.1834,-84.5333,-3.89,30,75,5.14,US,1612732285
kribi,2.95,9.9167,27.34,79,45,4.21,CM,1612732345
roma,43.2128,-75.4557,-2.78,74,90,6.69,US,1612732163
tyulyachi,55.8913,50.2399,-19.0,71,75,7.0,RU,1612732346
ubinskoye,55.3068,79.6802,-11.34,95,100,8.11,RU,1612732346
banda aceh,25.4833,80.3333,11.25,51,0,0.54,IN,1612732347
buerarema,-14.9594,-39.2997,29.0,79,40,3.09,BR,1612732347
mwinilunga,-11.7358,24.4293,18.92,94,100,3.05,ZM,1612732156
kadyy,57.787,43.1903,-28.35,86,8,2.87,RU,1612732348
limoux,42.9167,2.1667,8.33,81,40,2.57,FR,1612732349
vanimo,-2.6741,141.3028,25.08,85,100,2.01,PG,1612732349
bogorodsk,56.1033,43.5158,-21.0,71,40,5.0,RU,1612732350
hovd,48.0056,91.6419,-10.29,86,100,0.19,MN,1612732350
msowero,-6.5333,37.2,25.0,88,75,0.91,TZ,1612732350
paris,48.8534,2.3488,0.56,86,90,3.6,FR,1612732073
bilma,18.6853,12.9164,20.75,20,100,3.46,NE,1612732160
catamarca,-28.4696,-65.7852,32.78,49,14,3.58,AR,1612732241
paso de los toros,-14.4333,-67.5167,34.0,59,40,2.06,BO,1612732352
marienburg,54.0359,19.0266,-12.22,100,25,5.43,PL,1612732176
yangambi,0.8102,24.4336,21.57,43,97,0.74,CD,1612732353
danielskuil,-28.1887,23.5395,23.68,52,61,4.41,ZA,1612732353
sorland,67.667,12.6934,0.0,69,40,5.66,NO,1612732354
esperance,-33.8667,121.9,17.0,88,75,6.17,AU,1612732354
yamada,39.4667,141.95,-4.48,86,0,4.36,JP,1612732355
tura,25.5198,90.2201,13.91,48,0,1.51,IN,1612732146
cartagena,10.3997,-75.5144,31.0,66,40,5.66,CO,1612732356
korla,41.7597,86.1469,0.56,75,85,3.2,CN,1612732157
lethem,3.3803,-59.7968,33.82,42,93,4.47,GY,1612732069
palana,59.1167,159.9667,-10.99,91,56,14.92,RU,1612732076
hami,42.8,93.45,-0.49,79,68,1.7,CN,1612732358
port blair,-7.0349,29.7638,23.44,75,100,2.84,CD,1612732265
balakovo,52.0278,47.8007,-22.18,88,1,4.7,RU,1612732358
suifenhe,44.4,131.1667,-23.71,88,1,3.16,CN,1612732355
luderitz,-26.6481,15.1594,21.14,57,0,13.02,NA,1612732359
luganville,-15.5333,167.1667,27.55,65,0,3.2,VU,1612732359
meulaboh,4.1363,96.1285,24.83,87,47,1.95,ID,1612732360
salinas,36.6777,-121.6555,19.0,42,1,2.06,US,1612732361
dixon,38.4455,-121.8233,18.0,42,1,1.54,US,1612732362
teya,60.3778,92.6267,-3.13,92,92,6.64,RU,1612732363
dingle,10.9995,122.6711,24.18,92,100,3.53,PH,1612732363
constitucion,-35.3333,-72.4167,18.28,71,2,3.78,CL,1612732141
lompoc,34.6391,-120.4579,18.33,67,1,5.66,US,1612732096
chengde,40.9725,117.9361,-8.4,81,0,1.75,CN,1612732364
ushtobe,45.2514,77.9838,0.19,96,100,4.29,KZ,1612732365
kabare,-2.4683,28.8242,17.93,82,100,1.13,CD,1612732366
formoso do araguaia,-14.9467,-46.2319,20.93,89,100,5.84,BR,1612732366
praia da vitoria,14.9215,-23.5087,20.0,68,40,8.75,CV,1612732367
mwanza,-2.5167,32.9,22.0,88,75,1.94,TZ,1612732367
neuquen,-38.9516,-68.0591,22.0,43,90,3.6,AR,1612732367
banyo,6.75,11.8167,21.24,23,98,2.81,CM,1612732368
sola,-13.8833,167.55,27.24,76,100,4.17,VU,1612732368
miandrivazo,-19.5167,45.4667,25.16,83,100,2.41,MG,1612732369
samarai,-10.6167,150.6667,27.97,75,100,2.0,PG,1612732369
sindhnur,15.7833,76.7667,17.82,51,100,1.76,IN,1612732212
tessalit,20.1986,1.0114,18.13,26,100,4.94,ML,1612732370
huambo,-12.7761,15.7392,18.4,69,100,2.2,AO,1612732371
freeport,40.6576,-73.5832,0.0,93,90,5.66,US,1612732223
mineros,-17.1167,-63.2333,34.0,46,40,3.6,BO,1612732268
gazli,40.1333,63.45,12.3,58,100,2.58,UZ,1612732372
chipinge,-20.1883,32.6236,18.31,95,82,1.62,ZW,1612732369
obidos,-1.9175,-55.5181,30.05,61,100,1.01,BR,1612732357
rawson,-43.3002,-65.1023,16.44,49,10,5.79,AR,1612732373
anadyr,64.75,177.4833,-10.0,48,100,8.0,RU,1612732374
asosa,10.0667,34.5333,16.87,30,99,2.21,ET,1612732374
terrace,54.5163,-128.6035,-5.0,68,20,6.17,CA,1612732375
ransang,8.9603,117.5828,25.56,82,100,2.55,PH,1612732375
griffith,41.5284,-87.4237,-13.0,56,1,3.6,US,1612732375
porosozero,62.7191,32.727,-19.04,93,64,2.19,RU,1612732376
owensboro,37.7742,-87.1133,-2.0,40,1,3.09,US,1612732376
kaeo,-35.1,173.7833,21.11,73,31,2.24,NZ,1612732377
gagino,55.2314,45.0339,-22.28,88,85,4.3,RU,1612732377
beringovskiy,63.05,179.3167,-17.54,89,100,6.53,RU,1612732378
naberera,-4.2,36.9333,18.71,90,100,0.53,TZ,1612732378
poya,-21.35,165.15,26.14,72,69,0.78,NC,1612732378
jinchang,38.4953,102.1739,-0.97,68,31,2.87,CN,1612732209
porto novo,41.1496,-8.611,13.0,94,40,6.17,PT,1612732379
koslan,63.4564,48.8989,-29.2,85,100,4.53,RU,1612732380
yerbogachen,61.2767,108.0108,-6.86,97,100,2.28,RU,1612732380
ullapool,57.8987,-5.1604,0.0,69,48,3.13,GB,1612732381
san quintin,13.3034,-4.8956,26.7,17,100,7.67,ML,1612732233
sibolga,1.7427,98.7792,24.48,80,100,1.95,ID,1612732381
santa rita,17.486,120.4348,22.91,79,0,2.1,PH,1612732382
itarema,-2.9248,-39.9167,27.55,75,0,6.39,BR,1612732382
cairns,-16.9167,145.7667,26.67,100,100,2.26,AU,1612732132
nuuk,64.1835,-51.7216,0.0,40,56,6.17,GL,1612732339
encarnacion,-27.3333,-55.9,32.0,48,0,3.09,PY,1612732383
carballo,43.213,-8.691,11.11,96,100,0.45,ES,1612732383
shagonar,51.5333,92.8,-16.87,90,98,1.33,RU,1612732384
luz,-19.8014,-45.6856,23.02,85,85,1.85,BR,1612732384
santiago del estero,-33.4569,-70.6483,26.0,44,0,2.06,CL,1612732108
belmonte,-15.8631,-38.8828,29.0,84,75,4.63,BR,1612732386
mombetsu,44.3525,143.3525,-13.76,88,0,2.34,JP,1612732386
qaqortoq,60.7167,-46.0333,2.0,30,75,20.06,GL,1612732387
vilhena,-12.7406,-60.1458,28.0,65,40,3.09,BR,1612732299
corner brook,33.8004,-86.9422,7.78,73,64,2.37,US,1612732387
ischia,40.7342,13.9471,13.33,92,100,2.24,IT,1612732388
lasa,46.6166,10.7002,4.0,100,90,1.18,IT,1612732192
surt,31.2089,16.5887,21.36,27,100,8.42,LY,1612732389
san patricio,13.3034,-4.8956,26.7,17,100,7.67,ML,1612732389
itacoatiara,-3.1431,-58.4442,29.08,74,80,1.76,BR,1612732390
petropavlovsk-kamchatskiy,53.0452,158.6483,-4.0,68,75,2.0,RU,1612732384
kushiro,42.975,144.3747,-13.34,88,52,1.45,JP,1612732391
okhotsk,59.3833,143.3,-10.59,88,100,9.95,RU,1612732391
zeerust,-25.5369,26.0751,19.0,94,65,2.06,ZA,1612732392
laguna,38.421,-121.4238,18.33,48,1,1.54,US,1612732393
roald,62.5833,6.1333,-5.0,50,0,5.14,NO,1612732394
grand river south east,38.8755,-109.5012,15.0,9,1,6.69,US,1612732394
albanel,48.8832,-72.4487,-7.0,86,100,4.12,CA,1612732120
yaring,6.8662,101.3689,24.26,87,55,2.86,TH,1612732395
bani walid,18.2833,-70.3333,30.0,66,20,5.14,DO,1612732271
bubaque,11.2833,-15.8333,25.22,67,11,7.02,GW,1612732378
maningrida,-12.0667,134.2667,25.16,88,100,3.98,AU,1612732396
sai buri,48.7442,0.0262,2.0,75,90,5.14,FR,1612732397
westport,41.1415,-73.3579,-0.56,93,90,3.6,US,1612732397
mogadishu,2.0371,45.3438,25.53,80,1,10.69,SO,1612732359
bayanday,53.0661,105.5139,-13.47,88,59,0.95,RU,1612732398
brownwood,31.7093,-98.9912,22.0,18,1,4.63,US,1612732115
zeya,53.75,127.2667,-26.25,82,0,1.63,RU,1612732399
buchanan,5.8808,-10.0467,26.0,94,20,3.8,LR,1612732399
chivilcoy,-34.8957,-60.0167,31.11,68,0,3.13,AR,1612732399
kupang,-10.1667,123.5833,26.2,83,100,3.91,ID,1612732400
becerril,9.7041,-73.2793,37.08,29,78,1.67,CO,1612732400
talnakh,69.4865,88.3972,-29.15,74,35,1.14,RU,1612732400
pitimbu,-7.4706,-34.8086,28.0,78,75,4.12,BR,1612732401
caninde,-4.3589,-39.3117,30.58,47,3,3.66,BR,1612732401
kerema,-7.9631,145.7785,25.65,84,100,1.92,PG,1612732401
reconquista,-29.15,-59.65,32.36,26,0,2.54,AR,1612732402
torgau,51.5667,13.0,-6.0,73,75,7.2,DE,1612732402
moerai,-22.4333,-151.3333,27.2,73,62,4.5,PF,1612732163
fort nelson,52.6517,6.3861,-5.56,91,100,0.45,NL,1612732403
taitung,22.7583,121.1444,18.9,67,30,3.2,TW,1612732403
vuktyl,63.8567,57.3094,-30.75,86,100,4.01,RU,1612732404
key largo,32.7282,-101.7996,23.33,11,1,9.26,US,1612732404
nelson bay,-41.2833,173.2833,21.67,60,0,1.34,NZ,1612732396
riyadh,24.6877,46.7219,15.0,63,0,4.12,SA,1612732293
sipe sipe,58.2436,26.8215,-8.33,86,90,4.12,EE,1612732405
mosquera,4.7059,-74.2302,22.0,49,40,4.63,CO,1612732266
mereni,44.05,28.3667,7.22,100,90,4.12,RO,1612732406
adrar,20.5022,-10.0711,15.79,32,0,4.24,MR,1612732406
buta,2.7858,24.73,20.5,39,100,0.57,CD,1612732371
nam tha,29.424,90.9129,-9.99,63,0,1.91,CN,1612732407
mbekenyera,-10.0,38.9833,22.8,96,87,1.88,TZ,1612732407
sinnamary,5.3833,-52.95,25.76,85,100,6.47,GF,1612732408
rosarito,32.3333,-117.0333,19.44,55,1,2.57,MX,1612732408
diapaga,12.0708,1.7889,27.21,17,26,3.27,BF,1612732409
xiaoshi,41.2971,124.1209,-15.0,78,0,1.0,CN,1612732409
sao jose da coroa grande,20.5113,76.2129,15.32,31,45,2.85,IN,1612732248
acapulco,16.8634,-99.8901,30.0,62,1,4.12,MX,1612732410
mayya,61.7333,130.2811,-43.0,59,0,2.0,RU,1612732411
pangody,65.85,74.4859,-17.65,93,100,9.02,RU,1612732411
itoman,26.1247,127.6694,17.0,67,20,2.06,JP,1612732411
otane,-39.8833,176.6333,22.78,63,27,1.45,NZ,1612732412
russell,32.3502,-85.1999,14.0,44,1,4.12,US,1612732412
mareeba,-17.0,145.4333,26.67,100,100,1.07,AU,1612732412
sosua,19.7667,-70.5167,29.0,74,20,7.2,DO,1612732413
rakovski,42.3,24.9667,10.56,100,90,1.03,BG,1612732413
mandan,46.8267,-100.8896,-19.0,71,20,2.06,US,1612732414
ngaoundere,7.3167,13.5833,19.57,25,89,2.07,CM,1612732414
kasongo-lunda,-6.4667,16.8167,22.68,82,94,0.37,CD,1612732415
teeli,51.0333,90.2333,-17.13,87,93,0.16,RU,1612732415
klamath falls,42.6665,-121.7508,9.0,27,1,2.06,US,1612732415
maniitsoq,65.4167,-52.9,-2.96,79,0,8.91,GL,1612732416
umba,66.6871,34.3429,-15.03,94,98,1.93,RU,1612732139
popondetta,-8.7537,148.2534,24.4,92,100,1.1,PG,1612732417
