City,Lat,Lng,Max Temp,Humidity,Cloudiness,Wind Speed,Country,Date
woodward,36.4337,-99.3904,-6.0,93,90,3.6,US,1612685801
qaanaaq,77.484,-69.3632,-11.76,89,100,0.25,GL,1612685801
kodiak,57.79,-152.4072,-3.0,63,1,2.57,US,1612685802
victoria,22.2855,114.1577,22.78,61,0,0.45,HK,1612685585
nouadhibou,20.931,-17.0347,15.0,77,0,8.75,MR,1612685802
tamayo,18.3947,-71.2029,20.36,79,93,0.14,DO,1612685803
sihora,23.4833,80.1167,24.0,27,0,3.09,IN,1612685803
kiama,-34.6833,150.8667,22.78,78,10,0.45,AU,1612685804
mataura,-46.1927,168.8643,17.85,76,49,1.62,NZ,1612685804
mahebourg,-20.4081,57.7,31.0,66,40,7.2,MU,1612685767
bubaque,11.2833,-15.8333,24.01,51,19,10.62,GW,1612685805
butaritari,3.0707,172.7902,27.5,80,98,8.76,KI,1612685806
vilyuysk,63.7553,121.6247,-31.23,85,85,3.74,RU,1612685806
rikitea,-23.1203,-134.9692,25.26,75,37,5.41,PF,1612685806
ribeira grande,42.7461,-8.4439,5.56,100,75,2.57,ES,1612685807
kapaa,22.0752,-159.319,17.0,77,1,3.6,US,1612685807
jamestown,42.097,-79.2353,-8.0,57,1,3.6,US,1612685807
atuona,-9.8,-139.0333,26.33,77,90,10.62,PF,1612685711
sitka,57.0531,-135.33,-1.0,69,90,1.54,US,1612685808
saldanha,-33.0117,17.9442,24.0,53,78,7.2,ZA,1612685808
hilo,19.7297,-155.09,21.0,68,90,2.06,US,1612685809
hermanus,-34.4187,19.2345,20.56,80,97,3.84,ZA,1612685809
georgetown,5.4112,100.3354,33.0,62,20,4.63,MY,1612685655
abu samrah,24.6,72.7,22.19,20,0,1.08,IN,1612685810
high level,33.6123,-95.7472,1.67,94,1,2.08,US,1612685811
faanui,-16.4833,-151.75,28.07,69,46,4.14,PF,1612685811
ancud,-41.8697,-73.8203,11.67,76,0,1.54,CL,1612685811
arraial do cabo,-22.8362,-46.646,18.33,88,20,4.12,BR,1612685812
ambilobe,-13.2,49.05,30.9,62,100,1.73,MG,1612685812
pierre,44.3683,-100.351,-18.0,60,90,4.63,US,1612685580
new norfolk,6.6518,-10.5932,24.0,94,75,0.68,LR,1612685724
puerto ayora,36.5939,-6.233,11.0,82,40,4.63,ES,1612685813
punta arenas,8.9897,125.34,24.29,93,100,0.19,PH,1612685813
skibbereen,51.55,-9.2667,3.0,93,75,7.2,IE,1612685814
sarkand,45.41,79.9186,3.19,88,100,1.0,KZ,1612685814
mys shmidta,62.0589,48.6201,-28.9,82,98,4.64,RU,1612685814
san quintin,13.3034,-4.8956,23.21,23,28,7.45,ML,1612685702
vaini,-21.2,-175.2,26.0,94,75,4.12,TO,1612685815
roald,62.5833,6.1333,-6.11,67,0,3.6,NO,1612685816
codrington,-38.2667,141.9667,15.1,68,13,6.41,AU,1612685816
tuktoyaktuk,69.4541,-133.0374,-25.44,87,100,7.77,CA,1612685816
narsaq,60.9167,-46.05,4.0,38,75,20.06,GL,1612685817
bambous virieux,-20.2567,57.4061,31.0,66,40,7.2,MU,1612685575
barrow,71.2906,-156.7887,-22.0,77,75,4.12,US,1612685817
ushuaia,-54.8,-68.3,7.0,76,40,4.12,AR,1612685780
bluff,-46.6,168.3333,14.69,86,99,3.64,NZ,1612685818
longyearbyen,78.2186,15.6401,-7.0,73,75,6.69,SJ,1612685818
maneadero,31.7167,-116.5667,13.31,67,0,0.75,MX,1612685819
port macquarie,-7.0349,29.7638,26.46,65,92,1.48,CD,1612685819
mauguio,43.6181,4.0074,9.0,71,0,5.66,FR,1612685819
tiksi,71.6872,128.8694,-32.31,84,100,2.91,RU,1612685820
brae,60.3964,-1.353,1.0,51,90,7.2,GB,1612685820
thompson,55.7435,-97.8558,-36.0,61,40,5.14,CA,1612685820
busselton,-33.65,115.3333,17.78,91,100,1.34,AU,1612685821
madimba,-10.4,40.3333,29.0,79,75,5.14,TZ,1612685821
chipinge,-20.1883,32.6236,26.14,68,30,0.75,ZW,1612685822
mar del plata,43.4002,-4.0094,7.22,70,20,4.12,ES,1612685822
qaqortoq,60.7167,-46.0333,4.0,38,75,20.06,GL,1612685822
nanortalik,60.1432,-45.2371,-0.2,90,64,4.58,GL,1612685823
teguldet,57.3064,88.1667,1.81,88,42,4.12,RU,1612685823
geraldton,-28.7667,114.6,24.0,64,90,9.26,AU,1612685824
grand river south east,38.8755,-109.5012,2.0,30,1,2.57,US,1612685824
albany,42.6001,-73.9662,-7.22,57,100,0.29,US,1612685649
dobre miasto,44.8663,34.2266,3.33,84,100,1.69,UA,1612685825
paso de carrasco,-14.4333,-67.5167,21.99,96,15,0.59,BO,1612685825
preobrazheniye,42.9019,133.9064,-9.61,80,0,4.67,RU,1612685825
cape town,-36.413,-71.9028,16.0,100,90,3.09,CL,1612685826
dikson,73.5069,80.5464,-32.85,87,91,4.59,RU,1612685826
mnogovershinnyy,53.9353,139.9242,-15.74,95,100,4.29,RU,1612685826
gerash,27.6652,54.1371,21.0,40,20,3.52,IR,1612685827
yellowknife,62.456,-114.3525,-42.22,66,1,1.54,CA,1612685827
saint-philippe,-21.3585,55.7679,31.0,62,0,5.14,RE,1612685827
flinders,-34.5833,150.8552,22.78,74,15,3.13,AU,1612685828
bredasdorp,-34.5322,20.0403,21.0,68,100,2.57,ZA,1612685829
sri aman,30.0381,-8.7951,9.0,93,20,3.09,MA,1612685829
alcala,4.6747,-75.7825,16.97,89,76,0.9,CO,1612685829
cherskiy,68.75,161.3,-21.59,81,0,0.41,RU,1612685830
partur,19.6,76.2167,28.47,19,0,1.67,IN,1612685830
avarua,-21.2078,-159.775,25.0,88,10,1.54,CK,1612685830
mikhaylovsk,45.1283,42.0256,-6.0,86,90,3.0,RU,1612685831
manta,-0.95,-80.7333,25.0,83,75,1.54,EC,1612685831
balti,47.7617,27.9289,-5.0,98,100,1.79,MD,1612685832
verkhnyaya inta,60.9844,40.2072,-23.93,88,60,4.24,RU,1612685832
sobolevo,54.4299,31.8996,-17.24,92,14,4.18,RU,1612685832
nuuk,64.1835,-51.7216,2.0,44,20,9.26,GL,1612685833
berezovka,53.7214,25.4993,-17.62,92,0,1.1,BY,1612685833
calbuco,-41.768,-73.1273,9.0,93,0,1.54,CL,1612685834
imbituba,-28.24,-48.6703,17.0,94,0,1.54,BR,1612685834
nipawin,53.3668,-104.0009,-33.0,75,1,4.63,CA,1612685834
gemena,3.25,19.7667,31.84,29,39,1.59,CD,1612685835
ishigaki,24.3448,124.1572,23.0,73,20,5.14,JP,1612685835
socorro,31.6546,-106.3033,9.0,18,1,2.57,US,1612685835
tambacounda,13.7539,-13.7586,20.0,40,0,4.12,SN,1612685830
kamariotissa,40.4833,25.4667,17.0,100,75,5.45,GR,1612685837
cabadiangan,9.7531,122.4739,28.86,73,54,5.26,PH,1612685837
college,64.8569,-147.8028,-20.0,71,90,1.25,US,1612685837
dong hoi,4.895,12.0057,23.7,75,95,1.15,CM,1612685838
santiago tuxtla,-33.4569,-70.6483,17.22,88,90,1.03,CL,1612685603
nemuro,43.3236,145.575,-8.0,93,75,2.06,JP,1612685838
hinton,53.4001,-117.5857,-25.0,77,94,2.57,CA,1612685839
rudnyy,52.9594,63.1206,-12.0,67,0,17.0,KZ,1612685839
half moon bay,6.3807,-10.6953,24.0,94,75,1.11,LR,1612685840
marawi,7.9986,124.2928,26.67,88,100,1.34,PH,1612685840
omsukchan,62.5333,155.8,-19.89,87,100,4.41,RU,1612685840
east london,65.0,-15.0,2.0,75,75,3.09,IS,1612685841
baracoa,20.3467,-74.4958,24.21,86,91,2.37,CU,1612685841
atar,20.5169,-13.0499,11.05,59,0,3.72,MR,1612685841
port alfred,-7.0349,29.7638,26.46,65,92,1.48,CD,1612685842
yakima,46.4665,-120.6678,8.0,39,1,3.09,US,1612685609
hobart,-42.8794,147.3294,17.78,55,20,8.23,AU,1612685651
saint-jean-port-joli,47.2171,-70.2658,-8.0,62,20,7.2,CA,1612685843
lyantonde,-0.4031,31.1572,28.87,29,29,1.11,UG,1612685843
standerton,-26.9337,29.2415,24.77,49,0,1.78,ZA,1612685843
port blair,-7.0349,29.7638,26.46,65,92,1.48,CD,1612685819
airai,-8.9266,125.4092,19.56,100,100,1.31,TL,1612685844
iqaluit,63.7506,-68.5145,-4.0,58,20,5.66,CA,1612685845
saskylakh,71.9167,114.0833,-39.89,78,24,4.27,RU,1612685845
lavrentiya,65.5833,-171.0,-24.78,78,0,1.59,RU,1612685845
lebu,-37.6167,-73.65,14.38,92,96,2.2,CL,1612685846
chokurdakh,70.6333,147.9167,-32.65,85,0,2.26,RU,1612685846
waipawa,-41.4122,175.5153,19.0,59,21,3.6,NZ,1612685846
burgeo,47.6167,-57.6152,-0.78,86,90,16.95,CA,1612685847
upernavik,72.7868,-56.1549,-6.16,79,100,2.76,GL,1612685847
hambantota,6.1241,81.1185,32.0,66,40,6.17,LK,1612685848
haysville,37.5645,-97.3523,-10.0,73,90,5.66,US,1612685848
nanlong,31.3533,106.0631,17.26,40,58,1.81,CN,1612685848
gargzdai,55.7128,21.4033,-11.0,85,90,3.6,LT,1612685849
port hardy,-7.0349,29.7638,26.46,65,92,1.48,CD,1612685849
fortuna,40.5982,-124.1573,8.89,100,90,2.08,US,1612685850
ponta do sol,38.7333,-28.2667,16.0,88,75,7.72,PT,1612685850
aljezur,37.3191,-8.8033,10.56,54,71,0.89,PT,1612685851
fairbanks,64.8378,-147.7164,-20.0,71,90,1.26,US,1612685703
castro,-24.7911,-50.0119,13.32,92,83,2.39,BR,1612685851
bud,39.447,-86.1758,-10.56,84,77,4.76,US,1612685852
natchez,31.5604,-91.4032,9.0,87,90,6.69,US,1612685852
abu dhabi,24.6,72.7,22.19,20,0,1.08,IN,1612685852
karratha,-20.7377,116.8463,28.91,52,0,6.37,AU,1612685853
dabat,12.9842,37.765,17.61,28,56,2.89,ET,1612685853
kabo,7.6994,18.629,26.91,16,0,3.54,CF,1612685854
ulaangom,49.9811,92.0667,-16.39,92,93,1.37,MN,1612685856
lanxi,29.2195,119.477,20.36,60,30,1.51,CN,1612685856
clyde river,41.3042,-82.9752,-8.89,83,100,3.83,US,1612685857
varhaug,58.6147,5.6457,-9.44,85,0,4.98,NO,1612685857
ontario,34.0633,-117.6509,15.0,58,1,1.54,US,1612685857
rocha,-34.4833,-54.3333,15.63,90,0,0.95,UY,1612685858
bumba,2.1833,22.4667,28.36,29,0,1.83,CD,1612685768
buala,-8.145,159.5921,25.61,84,100,1.02,SB,1612685859
bundibugyo,0.7414,30.0417,31.36,18,75,1.45,UG,1612685828
mocuba,-16.8392,36.9856,32.43,63,54,0.73,MZ,1612685860
djibo,14.1022,-1.6306,24.96,18,71,2.92,BF,1612685860
kloulklubed,7.0419,134.2556,26.0,94,90,3.6,PW,1612685861
maracai,-22.6106,-50.6672,17.3,94,0,3.13,BR,1612685861
dawei,14.0833,98.2,32.18,38,0,4.52,MM,1612685861
samarai,-10.6167,150.6667,29.98,71,100,2.82,PG,1612685862
asau,46.4333,26.4,-2.22,75,96,1.77,RO,1612685862
tomatlan,19.9333,-105.25,18.59,93,0,0.99,MX,1612685863
axim,4.8699,-2.2405,27.18,83,100,3.02,GH,1612685770
sao joao da barra,20.5113,76.2129,26.15,17,0,2.66,IN,1612685864
port augusta,-7.0349,29.7638,26.46,65,92,1.48,CD,1612685864
sabang,5.8933,95.3214,27.83,79,69,8.03,ID,1612685828
marathon,44.9,-89.7668,-26.0,64,1,4.12,US,1612685865
alyangula,-13.8483,136.4192,30.0,70,90,5.14,AU,1612685865
touros,-5.1989,-35.4608,23.0,94,75,1.03,BR,1612685865
nantucket,41.2835,-70.0995,2.78,93,1,2.06,US,1612685866
lebedinyy,58.5167,125.5167,-27.7,88,91,0.43,RU,1612685866
carnarvon,-24.8667,113.6333,30.0,100,40,5.14,AU,1612685867
san cristobal,13.3034,-4.8956,23.21,23,28,7.45,ML,1612685867
perth,-31.9333,115.8333,22.22,83,90,4.12,AU,1612685645
mangrol,21.1167,70.1167,28.38,29,0,0.47,IN,1612685868
toamasina,-18.1667,49.3833,31.0,66,40,4.63,MG,1612685869
eureka,40.8021,-124.1637,7.78,93,41,2.03,US,1612685599
carnot,4.9409,15.8665,28.82,20,25,2.69,CF,1612685869
bengkulu,-3.8004,102.2655,30.15,63,100,5.79,ID,1612685870
yumen,40.2833,97.2,7.06,37,99,1.86,CN,1612685870
hami,42.8,93.45,7.4,46,0,1.85,CN,1612685870
chuy,-33.6971,-53.4616,17.32,86,0,1.79,UY,1612685871
kraksaan,-7.7585,113.3962,28.09,80,75,4.49,ID,1612685871
inta,66.0317,60.1659,-26.7,87,100,8.21,RU,1612685871
caarapo,-22.6342,-54.8222,15.12,93,0,1.03,BR,1612685872
kavaratti,10.5669,72.642,27.65,63,0,3.57,IN,1612685872
paamiut,61.994,-49.6678,-0.48,83,100,3.21,GL,1612685873
nizhniy kuranakh,45.3926,39.2364,-2.22,93,40,1.0,RU,1612685873
tsaratanana,-16.7833,47.65,29.6,57,72,2.04,MG,1612685873
boditi,6.9667,37.8667,19.16,60,88,2.79,ET,1612685874
bathsheba,13.2167,-59.5167,25.0,73,75,9.26,BB,1612685874
northam,51.0333,-4.2167,3.89,87,64,4.92,GB,1612685875
ahipara,-35.1667,173.1667,18.19,76,76,1.71,NZ,1612685875
denpasar,-8.65,115.2167,31.0,70,20,2.06,ID,1612685706
mount gambier,53.6597,-1.8537,0.56,54,96,2.68,GB,1612685876
buraydah,26.326,43.975,15.0,88,0,7.72,SA,1612685877
viedma,-40.8135,-62.9967,13.33,85,98,7.19,AR,1612685877
tasiilaq,65.6145,-37.6368,0.0,59,40,6.69,GL,1612685877
hovd,48.0056,91.6419,-6.89,81,44,1.63,MN,1612685878
dyersburg,36.0345,-89.3856,0.0,93,90,4.12,US,1612685878
camacha,33.0833,-16.3333,15.0,72,75,4.63,PT,1612685878
kruisfontein,-34.0033,24.7314,26.11,57,0,4.02,ZA,1612685879
ukiah,39.1502,-123.2078,8.33,87,1,0.77,US,1612685879
klaksvik,62.2266,-6.589,2.0,60,20,7.72,FO,1612685880
muscat,23.6139,58.5922,25.0,57,0,4.12,OM,1612685823
ust-maya,60.4167,134.5333,-33.7,83,20,1.11,RU,1612685881
bilma,18.6853,12.9164,21.08,21,52,6.21,NE,1612685881
pisco,-13.7,-76.2167,22.0,83,100,2.06,PE,1612685882
aginskoye,51.1,114.53,-15.69,89,2,1.06,RU,1612685882
kasungu,-13.0333,33.4833,24.07,82,100,2.64,MW,1612685883
zheleznodorozhnyy,55.7503,38.0042,-14.0,78,75,6.0,RU,1612685883
luderitz,-26.6481,15.1594,25.62,38,0,11.57,NA,1612685884
iralaya,15.0,-83.2333,24.95,84,8,4.46,HN,1612685884
sisimiut,66.9395,-53.6735,-1.59,79,0,9.41,GL,1612685885
moratuwa,6.773,79.8816,31.0,62,75,4.63,LK,1612685885
aklavik,68.2191,-135.0107,-25.0,77,100,3.09,CA,1612685886
padang,-0.9492,100.3543,33.0,55,20,3.6,ID,1612685886
vestmannaeyjar,63.4427,-20.2734,2.69,79,74,9.57,IS,1612685886
nikolskoye,59.7035,30.7861,-11.0,85,75,7.0,RU,1612685887
katsuura,35.1333,140.3,16.11,44,0,2.35,JP,1612685887
cabo san lucas,-8.2833,-35.0333,24.0,78,40,1.03,BR,1612685887
torbay,47.6666,-52.7314,1.11,80,90,11.83,CA,1612685888
rosita,13.9268,-84.4032,20.8,96,43,0.6,NI,1612685889
coihaique,-45.5752,-72.0662,11.0,76,0,1.54,CL,1612685889
krasnogorskoye,52.2953,86.1979,1.18,96,100,1.67,RU,1612685889
mount isa,53.6597,-1.8537,0.56,54,96,2.68,GB,1612685890
srednekolymsk,67.45,153.6833,-23.33,85,100,3.2,RU,1612685890
hithadhoo,-0.6,73.0833,27.91,71,45,4.78,MV,1612685890
koungou,-12.7336,45.2042,30.0,70,75,4.63,YT,1612685891
duluth,46.7833,-92.1066,-26.0,58,1,4.12,US,1612685793
husavik,66.0449,-17.3389,-1.0,86,40,1.54,IS,1612685892
tshela,-4.9833,12.9333,27.13,87,93,0.63,CD,1612685892
vardo,70.3705,31.1107,-3.55,93,100,12.08,NO,1612685893
lorengau,-2.0226,147.2712,28.65,78,91,3.16,PG,1612685894
falam,22.9167,93.6833,21.39,22,27,0.21,MM,1612685894
stratford,41.1845,-73.1332,-0.56,74,1,2.07,US,1612685780
victor harbor,42.9826,-77.4089,-9.44,58,100,2.52,US,1612685895
katherine,-14.4667,132.2667,29.0,74,40,4.63,AU,1612685895
port elizabeth,-7.0349,29.7638,26.46,65,92,1.48,CD,1612685849
patea,-39.7583,174.4833,16.67,83,94,0.45,NZ,1612685896
otradnoye,59.7775,30.8181,-11.0,85,75,7.0,RU,1612685896
kavieng,-2.5744,150.7967,29.04,73,84,3.62,PG,1612685897
winder,33.9926,-83.7202,2.22,93,90,1.54,US,1612685897
khatanga,71.9667,102.5,-35.26,79,0,3.98,RU,1612685899
simao,22.7886,100.9748,18.16,72,96,2.02,CN,1612685900
kalamare,-22.9337,26.5703,19.5,90,100,4.09,BW,1612685900
kanata,45.3159,-75.8985,-8.89,73,90,3.09,CA,1612685708
gimli,50.6336,-96.9907,-32.0,68,0,2.57,CA,1612685901
chalons-en-champagne,48.9539,4.3672,4.0,93,90,3.6,FR,1612685901
coahuayana,18.7333,-103.6833,20.45,88,21,1.13,MX,1612685902
honghu,29.8206,113.4621,10.29,91,100,4.06,CN,1612685902
santa isabel do rio negro,17.486,120.4348,28.23,67,100,1.97,PH,1612685902
tecoanapa,16.5167,-98.75,22.18,85,0,1.56,MX,1612685903
norman wells,35.2226,-97.4395,-1.67,80,90,2.57,US,1612685681
nandu,22.8525,110.8233,25.0,60,0,1.1,CN,1612685903
souillac,-20.5167,57.5167,31.0,66,40,7.2,MU,1612685904
balaghat,21.8,80.1833,29.02,13,0,2.15,IN,1612685904
zhezkazgan,47.8043,67.7144,-5.74,95,96,7.45,KZ,1612685905
tuatapere,-46.1333,167.6833,14.0,86,58,0.56,NZ,1612685905
comodoro rivadavia,-13.6631,-59.7858,19.65,98,100,0.53,BR,1612685905
port lincoln,-7.0349,29.7638,26.46,65,92,1.48,CD,1612685864
valdivia,-39.8142,-73.2459,14.0,100,90,1.03,CL,1612685767
dromolaxia,34.8761,33.586,18.0,88,20,4.12,CY,1612685906
margate,51.3813,1.3862,0.56,85,100,4.92,GB,1612685701
olafsvik,64.8945,-23.7142,0.92,85,0,6.68,IS,1612685907
manokwari,-0.8667,134.0833,27.3,78,98,1.01,ID,1612685907
ibra,22.6906,58.5334,24.21,24,0,2.9,OM,1612685908
kirando,-7.4167,30.6,24.96,70,93,0.42,TZ,1612685908
sao filipe,20.5113,76.2129,26.15,17,0,2.66,IN,1612685908
poum,-20.2333,164.0167,27.27,68,2,2.21,NC,1612685909
huarmey,-10.0681,-78.1522,21.65,73,100,2.06,PE,1612685909
lasa,46.6166,10.7002,4.44,100,90,3.6,IT,1612685910
bethel,41.3712,-73.414,-2.78,79,1,0.98,US,1612685910
lompoc,34.6391,-120.4579,12.22,100,90,1.54,US,1612685795
san andres,13.3034,-4.8956,23.21,23,28,7.45,ML,1612685867
caluquembe,-13.7833,14.6833,23.05,51,100,1.46,AO,1612685911
albania,41.0,20.0,10.0,87,0,1.54,AL,1612685912
zhigansk,66.7697,123.3711,-34.66,82,100,6.97,RU,1612685912
gisborne,-38.6533,178.0042,17.22,76,83,0.45,NZ,1612685687
vorotynets,56.0603,45.8633,-18.92,89,100,6.05,RU,1612685913
moree,-29.4667,149.85,31.0,27,75,5.66,AU,1612685914
ruzomberok,49.0748,19.3075,-0.56,68,100,0.89,SK,1612685914
namibe,-15.1961,12.1522,20.0,83,75,3.38,AO,1612685915
gorin,51.1983,136.6669,-16.12,92,100,3.29,RU,1612685916
chake chake,23.86,103.046,13.73,80,100,2.75,CN,1612685917
tagusao,9.1924,117.8141,28.31,74,67,5.81,PH,1612685917
agaro,7.85,36.65,27.97,31,100,0.96,ET,1612685769
aitape,-3.1374,142.3475,26.55,85,100,2.55,PG,1612685918
areka,7.0667,37.7,19.93,59,96,2.48,ET,1612685918
beringovskiy,63.05,179.3167,-22.18,90,98,6.1,RU,1612685919
yvetot,49.6174,0.7581,1.67,93,100,5.81,FR,1612685919
baruun-urt,46.6806,113.2792,-17.92,89,16,4.11,MN,1612685919
weymouth,42.2209,-70.9398,-1.11,50,100,3.09,US,1612685920
mato verde,41.0961,-8.1294,1.11,9,66,0.63,PT,1612685920
necochea,-38.5473,-58.7368,15.56,84,98,3.37,AR,1612685921
yichun,47.7,128.9,-18.77,88,100,2.67,CN,1612685921
krabi,8.0726,98.9105,35.0,49,20,3.6,TH,1612685921
marsh harbour,53.6512,-1.8078,1.67,54,97,2.68,GB,1612685922
sioux lookout,42.7333,-96.2336,-20.0,84,1,1.58,US,1612685922
kahului,20.8947,-156.47,20.0,73,20,1.54,US,1612685922
okulovka,58.4008,33.2908,-12.73,95,100,4.72,RU,1612685923
dingle,10.9995,122.6711,27.45,82,24,6.34,PH,1612685923
hofn,64.2539,-15.2082,1.18,89,100,7.48,IS,1612685924
cabedelo,-6.9811,-34.8339,23.0,100,20,2.97,BR,1612685924
nome,64.5011,-165.4064,-11.0,85,90,1.54,US,1612685925
shelburne,44.0787,-80.2041,-8.33,91,100,4.04,CA,1612685708
jiaonan,35.8786,119.9753,8.0,34,0,8.0,CN,1612685925
roma,43.2128,-75.4557,-12.0,72,1,3.6,US,1612685926
grand gaube,38.8755,-109.5012,2.0,30,1,2.57,US,1612685824
grindavik,63.8424,-22.4338,1.0,60,0,7.72,IS,1612685927
hasaki,35.7333,140.8333,14.0,38,20,1.54,JP,1612685927
caravelas,-17.7125,-39.2481,24.34,89,100,3.31,BR,1612685927
trincomalee,8.5711,81.2335,26.88,81,47,7.11,LK,1612685928
cestas,44.7435,-0.6791,5.0,100,75,3.6,FR,1612685928
kudahuvadhoo,2.6708,72.8944,27.73,77,99,6.87,MV,1612685928
harper,4.375,-7.7169,26.75,84,97,2.79,LR,1612685929
barranca,-10.75,-77.7667,20.66,79,100,1.54,PE,1612685929
helena,46.5927,-112.0361,-17.78,71,90,4.63,US,1612685839
gizo,-8.103,156.8419,29.02,72,99,1.97,SB,1612685930
deputatskiy,69.3,139.9,-34.98,85,4,0.68,RU,1612685930
san patricio,13.3034,-4.8956,23.21,23,28,7.45,ML,1612685702
santa lucia,17.486,120.4348,28.23,67,100,1.97,PH,1612685931
lokoja,7.8024,6.743,28.59,28,100,1.03,NG,1612685931
udachnyy,66.4167,112.4,-30.82,84,97,3.88,RU,1612685932
wigtown,54.8684,-4.4419,0.4,91,22,9.52,GB,1612685932
columbia,34.0007,-81.0348,4.44,93,90,3.41,US,1612685774
santa rosa,17.486,120.4348,28.23,67,100,1.97,PH,1612685933
port-cartier,50.0334,-66.8654,-6.0,68,0,7.2,CA,1612685933
laguna,38.421,-121.4238,8.33,87,1,0.52,US,1612685785
leningradskiy,69.3833,178.4167,-24.31,72,18,1.89,RU,1612685934
tari,12.4086,4.4914,24.07,18,5,7.25,NG,1612685934
pemangkat,1.1667,108.9667,26.33,84,100,5.55,ID,1612685934
tilichiki,60.4667,166.1,-8.82,89,100,6.0,RU,1612685935
qasigiannguit,68.8193,-51.1922,-2.0,40,0,11.32,GL,1612685935
tevaitoa,-16.7833,-151.5,28.11,67,63,4.35,PF,1612685935
tvoroyri,61.5556,-6.8111,2.0,60,20,7.72,FO,1612685936
jumla,29.2747,82.1838,13.95,29,0,2.06,NP,1612685936
kapit,2.0167,112.9333,28.44,85,100,0.51,MY,1612685936
beya,53.0533,90.9139,-1.28,95,59,0.42,RU,1612685937
taoudenni,22.6783,-3.9836,13.49,41,14,3.25,ML,1612685937
ryotsu,38.0833,138.4333,4.0,75,75,10.29,JP,1612685938
manggar,-2.8833,108.2667,29.55,67,100,6.96,ID,1612685938
mecca,21.4267,39.8261,24.21,30,0,2.58,SA,1612685939
mariani,26.6667,94.3333,26.53,30,10,1.38,IN,1612685939
fairview,40.8126,-73.999,3.0,38,1,2.06,US,1612685939
vilcun,-38.65,-72.2333,13.0,100,90,2.57,CL,1612685940
neiafu,-18.65,-173.9833,27.12,85,100,7.28,TO,1612685940
porosozero,62.7191,32.727,-11.39,96,100,2.25,RU,1612685940
loreto,22.2667,-101.9667,9.78,44,0,0.66,MX,1612685783
weinan,34.5036,109.5089,15.0,18,0,4.0,CN,1612685941
pevek,69.7008,170.3133,-23.32,86,0,1.4,RU,1612685941
saint-georges,12.0564,-61.7485,25.35,76,99,7.03,GD,1612685942
bognor regis,44.5231,-80.7441,-8.33,85,100,1.34,CA,1612685942
smyrna,33.884,-84.5144,2.22,93,90,1.54,US,1612685654
corozal,9.3151,-75.2928,24.42,74,100,1.68,CO,1612685943
rawson,-43.3002,-65.1023,14.15,66,99,5.5,AR,1612685943
lazaro cardenas,19.4558,-71.3261,20.56,88,100,2.24,DO,1612685943
talnakh,69.4865,88.3972,-33.01,72,0,1.03,RU,1612685944
mumbwa,-14.9783,27.0619,22.96,87,96,2.62,ZM,1612685945
ushumun,52.7833,126.5333,-21.0,90,8,2.59,RU,1612685945
kilinochchi,9.3961,80.3982,27.14,77,90,6.43,LK,1612685945
vila franca do campo,42.0304,-8.1588,6.11,93,75,3.6,PT,1612685946
kirundo,-2.5833,30.1667,21.0,83,75,1.03,BI,1612685946
jalu,29.0331,21.5482,18.5,33,73,5.44,LY,1612685946
san ramon,13.3034,-4.8956,23.21,23,28,7.45,ML,1612685867
alzamay,55.5562,98.6644,1.03,90,53,1.65,RU,1612685947
komsomolskiy,40.4272,71.7189,12.0,35,20,2.06,UZ,1612685891
san rafael del sur,13.3034,-4.8956,23.21,23,28,7.45,ML,1612685867
saravan,39.7196,45.6483,7.0,61,20,2.06,AM,1612685948
olinda,-8.0089,-34.8553,24.0,78,40,1.03,BR,1612685949
payo,-3.7508,103.6372,27.85,83,100,2.06,ID,1612685949
adeje,28.1227,-16.726,15.56,67,40,4.12,ES,1612685950
kitimat,54.0524,-128.6534,0.0,96,99,0.43,CA,1612685950
vostok,46.4856,135.8833,-21.87,92,100,1.66,RU,1612685951
kamalpur,24.2,91.8333,21.0,68,75,1.54,IN,1612685951
yar-sale,66.8333,70.8333,-26.26,89,100,10.48,RU,1612685952
monticello,45.3055,-93.7941,-27.0,76,1,3.5,US,1612685952
itupiranga,-5.1347,-49.3267,24.0,100,0,0.95,BR,1612685953
yulara,-25.2406,130.9889,36.0,15,0,5.66,AU,1612685953
sistranda,63.7256,8.834,-7.0,93,20,5.66,NO,1612685954
stornoway,58.2093,-6.3865,2.0,60,75,8.23,GB,1612685954
esperance,-33.8667,121.9,20.0,68,90,8.23,AU,1612685954
peniche,39.3558,-9.3811,11.67,70,99,1.79,PT,1612685955
yerbogachen,61.2767,108.0108,-11.79,95,100,4.18,RU,1612685955
provideniya,64.3833,-173.3,-19.48,81,0,4.4,RU,1612685955
haines junction,59.2286,-135.4441,-11.0,67,1,6.17,US,1612685956
ayer itam,43.1187,-5.5839,5.0,74,100,0.97,ES,1612685956
cidreira,-30.1811,-50.2056,19.06,77,0,5.15,BR,1612685956
talas,38.6908,35.5538,8.0,49,0,0.72,TR,1612685957
podor,16.6527,-14.9587,14.0,62,0,1.03,MR,1612685957
lunenburg,44.3835,-64.3155,1.0,55,43,6.69,CA,1612685709
ponta delgada,38.7333,-28.2667,16.0,88,75,7.72,PT,1612685850
batagay-alyta,67.8006,130.4114,-35.72,82,52,0.66,RU,1612685958
rio de oro,38.3,21.7833,16.67,76,0,0.72,GR,1612685959
aku,6.7081,7.3167,28.0,78,100,1.54,NG,1612685959
oltu,40.5498,42.0013,4.69,63,13,1.23,TR,1612685960
salalah,17.0151,54.0924,25.0,57,75,4.63,OM,1612685960
pangnirtung,66.1451,-65.7125,-5.34,80,32,2.02,CA,1612685960
senador jose porfirio,18.8188,-71.9016,24.0,78,98,5.66,HT,1612685961
ruteng,-8.6136,120.4721,20.92,100,96,1.18,ID,1612685961
lagoa,39.05,-27.9833,15.14,89,100,9.35,PT,1612685962
banda aceh,25.4833,80.3333,24.7,21,0,3.44,IN,1612685962
chapais,49.7834,-74.8492,-17.0,92,90,1.54,CA,1612685962
maharajganj,27.1333,83.5667,23.8,33,0,4.22,IN,1612685963
puerto escondido,36.5939,-6.233,11.0,82,40,4.63,ES,1612685963
hualmay,-11.0964,-77.6139,21.64,74,100,2.31,PE,1612685964
kununurra,-15.7667,128.7333,31.0,70,99,2.57,AU,1612685964
antofagasta,-23.65,-70.4,18.0,72,0,0.51,CL,1612685744
raton,36.9034,-104.4391,-5.0,50,1,4.63,US,1612685965
heyang,26.1011,107.473,14.49,84,100,1.82,CN,1612685965
sao felix do xingu,20.5113,76.2129,26.15,17,0,2.66,IN,1612685908
pimentel,-6.8367,-79.9342,20.56,86,51,1.79,PE,1612685966
pershotravneve,51.3929,28.8684,-12.8,88,31,1.94,UA,1612685967
ostrovnoy,68.0531,39.5131,-13.19,89,100,6.33,RU,1612685967
tautira,-17.7333,-149.15,24.0,73,75,1.54,PF,1612685968
valladolid,41.5833,-4.6667,3.89,83,100,1.57,ES,1612685968
saint-junien,45.8833,0.9,2.78,100,90,2.57,FR,1612685968
alofi,-19.0595,-169.9187,26.0,94,100,2.06,NU,1612685969
nishihara,26.1842,127.7558,21.0,49,20,4.63,JP,1612685969
tanabe,33.7333,135.3667,13.0,54,20,7.2,JP,1612685970
thinadhoo,0.5333,72.9333,27.84,75,78,6.35,MV,1612685970
ossora,59.2353,163.0719,-2.72,97,100,15.77,RU,1612685970
nam tha,29.424,90.9129,3.25,45,96,6.47,CN,1612685971
brownsville,25.9018,-97.4975,15.56,94,90,2.57,US,1612685951
kasama,-10.2129,31.1808,22.26,88,56,3.37,ZM,1612685972
richards bay,46.8361,-95.9123,-29.0,76,40,4.12,US,1612685972
senica,48.6792,17.367,4.44,93,90,3.6,SK,1612685972
rock sound,42.6667,-89.0668,-24.0,70,1,2.57,US,1612685973
palmer,42.1584,-72.3287,-4.44,79,1,0.87,US,1612685973
severo-kurilsk,50.6789,156.125,-5.51,92,100,7.92,RU,1612685973
sidmouth,50.6909,-3.2397,3.33,88,54,4.02,GB,1612685974
velasco ibarra,41.6165,-2.9732,0.0,81,91,3.51,ES,1612685975
inuvik,68.3499,-133.7218,-25.0,77,100,3.09,CA,1612685975
oshakati,-17.7833,15.6833,31.0,51,0,1.54,NA,1612685976
ilulissat,69.2167,-51.1,-2.0,40,0,11.32,GL,1612685977
mogadishu,2.0371,45.3438,29.0,54,75,7.72,SO,1612685978
acapulco,16.8634,-99.8901,23.1,81,18,1.79,MX,1612685847
dalby,-27.1833,151.2667,30.56,46,12,1.34,AU,1612685979
aqtobe,50.2797,57.2072,-9.0,73,40,8.0,KZ,1612685979
cap-aux-meules,47.3821,-61.8597,-3.0,63,0,15.95,CA,1612685753
sari,36.5633,53.0601,16.0,67,75,2.06,IR,1612685980
vao,-22.6667,167.4833,25.76,84,0,3.79,NC,1612685980
anadyr,64.75,177.4833,-20.56,65,0,2.0,RU,1612685980
dukat,62.55,155.55,-19.93,88,100,4.19,RU,1612685981
kokopo,-4.352,152.2633,27.38,81,38,4.37,PG,1612685965
alenquer,-1.9417,-54.7383,25.0,94,0,1.54,BR,1612685982
zeya,53.75,127.2667,-20.28,85,0,1.76,RU,1612685982
gat,31.61,34.7642,17.78,28,0,0.37,IL,1612685942
bereda,43.2686,-7.5406,3.33,100,100,3.58,ES,1612685983
codajas,-3.8367,-62.0569,23.29,97,100,0.68,BR,1612685984
qurayyat,31.3318,37.3428,12.0,94,0,2.06,SA,1612685984
mayo,38.8876,-76.5119,6.0,56,90,3.09,US,1612685772
giddalur,15.35,78.9167,30.66,25,91,4.29,IN,1612685985
inhambane,-23.865,35.3833,31.0,62,40,4.07,MZ,1612685986
quelimane,-17.8786,36.8883,30.0,79,75,1.54,MZ,1612685986
hamilton,39.1834,-84.5333,-6.0,73,90,6.69,US,1612685709
salta,-24.7859,-65.4117,18.89,94,20,0.48,AR,1612685790
colomi,-17.35,-65.8667,16.0,67,75,2.57,BO,1612685987
simpang,-1.2667,104.0833,30.29,59,100,3.76,ID,1612685828
midleton,51.9153,-8.1805,3.89,93,75,7.2,IE,1612685988
biloela,-24.4167,150.5,29.7,58,100,2.05,AU,1612685988
kashi,39.4547,75.9797,10.0,20,0,3.0,CN,1612685989
turukhansk,65.8167,87.9833,-19.33,89,100,4.56,RU,1612685989
camana,-16.6228,-72.7111,22.21,74,74,2.29,PE,1612685989
denizli,37.8402,29.0698,8.0,71,0,2.57,TR,1612685969
post falls,33.1909,-101.3782,4.0,75,1,6.69,US,1612685990
mitsamiouli,-11.3847,43.2844,31.0,70,20,6.69,KM,1612685990
peace river,48.3083,38.0721,-8.53,79,0,4.1,UA,1612685991
ilebo,-4.3167,20.5833,26.03,72,95,0.9,CD,1612685991
mehamn,71.0357,27.8492,-4.15,93,100,9.62,NO,1612685991
dutse,11.7594,9.3392,19.7,23,89,3.01,NG,1612685992
naze,28.3667,129.4833,18.0,59,20,4.12,JP,1612685992
bosaso,11.2842,49.1816,26.0,73,40,3.09,SO,1612685992
ouesso,1.6136,16.0517,30.16,55,68,1.79,CG,1612685993
kohima,25.6667,94.1167,19.16,35,30,2.0,IN,1612685994
saint-joseph,-21.3667,55.6167,31.0,62,0,5.14,RE,1612685995
tigil,57.8,158.6667,-0.45,96,99,8.87,RU,1612685995
sao jose da coroa grande,20.5113,76.2129,26.15,17,0,2.66,IN,1612685995
araouane,18.9048,-3.5265,17.31,31,100,8.53,ML,1612685996
saint-pierre,-21.3393,55.4781,31.0,62,0,5.14,RE,1612685996
namestovo,49.4079,19.4803,-5.56,96,100,2.24,SK,1612685996
dondo,-19.6094,34.7431,31.0,74,40,1.54,MZ,1612685997
bairiki,1.3292,172.9752,27.0,83,75,4.12,KI,1612685997
pringsewu,-5.3582,104.9744,28.14,82,100,1.38,ID,1612685997
bagdarin,54.4333,113.6,-17.77,85,89,1.01,RU,1612685998
masvingo,-20.0637,30.8277,24.58,70,35,2.39,ZW,1612685999
bensonville,6.4461,-10.6125,24.0,94,75,0.97,LR,1612685999
sinop,41.7711,34.8709,11.57,52,98,1.67,TR,1612685999
emerald,-23.5333,148.1667,30.56,89,75,7.2,AU,1612686000
ayan,56.45,138.1667,-19.21,81,100,7.56,RU,1612686000
lafiagi,8.8667,5.4167,28.5,17,88,0.68,NG,1612686001
pozo colorado,22.4497,-80.1794,23.0,94,20,1.03,CU,1612686002
mollendo,-17.0231,-72.0147,21.95,77,100,1.75,PE,1612686002
taguatinga,-12.3857,-46.5711,20.7,94,100,0.65,BR,1612686002
praia da vitoria,14.9215,-23.5087,19.0,68,75,9.26,CV,1612686003
chinhoyi,-17.3667,30.2,24.98,68,41,3.08,ZW,1612685949
central point,30.5544,-91.0368,10.56,76,90,3.6,US,1612686004
labuhan,-6.8844,112.2051,28.48,76,100,9.08,ID,1612686004
koutsouras,35.0339,25.9469,20.56,70,33,6.12,GR,1612686004
dunedin,-45.8742,170.5036,15.56,87,2,0.89,NZ,1612686005
pinos,22.3,-101.5667,11.0,76,1,2.78,MX,1612686005
taltal,-25.4,-70.4833,15.7,80,19,0.8,CL,1612686005
santa cruz,17.486,120.4348,28.23,67,100,1.97,PH,1612686006
vila velha,42.0304,-8.1588,6.11,93,75,3.6,PT,1612686006
toora-khem,52.4675,96.11,-6.39,92,18,0.8,RU,1612686007
nyagan,62.1406,65.3936,-18.95,92,100,5.28,RU,1612686007
ayna,-12.65,-73.9167,15.35,80,100,0.26,PE,1612686007
pedernales,18.0384,-71.744,23.31,57,88,3.16,DO,1612686008
karlshamn,56.1706,14.8619,-9.44,92,40,5.66,SE,1612686008
atagay,55.1033,99.3875,-0.4,94,52,2.2,RU,1612686008
effingham,32.3669,-81.3332,7.0,93,90,2.57,US,1612686009
destin,30.3935,-86.4958,9.44,93,90,2.06,US,1612686009
wainwright,52.839,-110.8572,-34.0,68,20,0.51,CA,1612686009
tombouctou,20.0,-3.0,15.86,35,35,7.54,ML,1612686010
isangel,-19.55,169.2667,26.45,76,73,2.07,VU,1612686010
tarpon springs,37.1859,-82.3513,0.0,100,90,1.54,US,1612686010
puerto cabezas,36.5939,-6.233,11.0,82,40,4.63,ES,1612685963
kholmogory,64.2229,41.656,-19.0,65,40,2.0,RU,1612686011
almaznyy,48.0448,40.045,-6.0,63,40,3.0,RU,1612686011
khani,41.9563,42.9566,9.0,93,90,3.6,GE,1612686012
granada,37.25,-3.25,6.67,89,54,2.77,ES,1612686012
takoradi,4.8845,-1.7554,26.87,84,100,3.11,GH,1612686013
constitucion,-35.3333,-72.4167,13.07,91,8,3.35,CL,1612686013
bontang,0.1333,117.5,28.9,69,100,3.54,ID,1612686014
quchan,37.106,58.5095,10.94,47,69,3.34,IR,1612686014
znamenskoye,57.1281,73.8282,-7.54,94,100,8.44,RU,1612686015
hohhot,40.8106,111.6522,1.0,23,0,5.0,CN,1612686015
rawlins,41.7911,-107.2387,-2.0,64,1,14.92,US,1612686015
chebsara,59.2002,38.8356,-14.0,78,40,5.0,RU,1612686016
kaitangata,-46.2817,169.8464,17.22,88,0,1.79,NZ,1612686016
berlevag,70.8578,29.0864,-4.16,93,100,10.52,NO,1612686016
xingyi,24.1877,102.817,10.35,89,100,1.14,CN,1612686017
alice springs,27.7523,-98.0697,11.0,71,1,3.19,US,1612686017
galesong,-5.3166,119.3661,31.0,66,20,3.6,ID,1612686017
mabaruma,8.2,-59.7833,21.58,98,100,1.05,GY,1612686018
brownwood,31.7093,-98.9912,4.0,87,90,4.35,US,1612686019
hirara,24.8,125.2833,23.0,78,75,5.14,JP,1612686019
kisesa,-3.0833,34.15,21.43,78,97,2.58,TZ,1612686019
traismauer,48.3519,15.7635,1.11,99,100,3.13,AT,1612686020
limon,10.0,-83.0333,24.76,82,97,0.33,CR,1612686020
namtsy,62.7161,129.6658,-39.0,67,0,3.0,RU,1612686020
havre-saint-pierre,50.2334,-63.5986,-4.0,86,90,16.46,CA,1612686021
goure,13.9835,10.2704,21.67,16,84,4.92,NE,1612686021
minna,9.6139,6.5569,26.0,22,99,6.17,NG,1612686021
sechura,-5.5569,-80.8222,23.5,69,91,4.25,PE,1612686022
iguape,-24.7081,-47.5553,21.72,71,16,1.34,BR,1612686022
wuda,39.4994,106.7117,3.82,58,48,1.89,CN,1612686023
argelia,2.2556,-77.2488,17.91,78,92,0.38,CO,1612686023
licata,37.1071,13.9461,15.0,63,40,2.57,IT,1612686023
paciran,-6.8767,112.3761,28.5,76,87,9.06,ID,1612686005
bilibino,68.0546,166.4372,-20.36,74,0,1.62,RU,1612686024
katangli,51.7102,143.2326,-14.72,93,100,6.32,RU,1612686024
baghdad,33.3406,44.4009,16.0,82,40,2.57,IQ,1612686025
pearl,32.2746,-90.132,7.0,93,90,5.66,US,1612686025
rio gallegos,38.3,21.7833,16.67,76,0,0.72,GR,1612685959
porto walter,41.1496,-8.611,5.0,87,40,4.63,PT,1612685844
millerovo,48.9226,40.3967,-9.37,78,34,5.43,RU,1612686026
coquimbo,-29.9533,-71.3436,14.0,82,0,2.57,CL,1612686027
